,address,price,lat,long,restaurants,shopping,vibrant,cycling_friendly,car_friendly,historic,quiet,elementary_schools,high_schools,parks,nightlife,groceries,daycares,pedestrian_friendly,cafes,transit_friendly,greenery,year_built,population_2016_,percent_population_variation,population_density,unemployment_rate,"less_than_$50,000_(%)","between_$50,000_and_$80,000_(%)","between_$80,000_and_$100,000_(%)","between_$100,000_and_$150,000_(%)","more_than_$150,000_(%)",1-person_households_(%),2-person_households_(%),3-person_households_(%),4-person_households_(%),5-person_or_more_households_(%),couples_without_children_at_home_(%),couples_with_children_at_home_(%),single-parent_families_(%),owners_(%),renters_(%),before_1960_(%),between_1961_and_1980_(%),between_1981_and_1990_(%),between_1991_and_2000_(%),between_2001_and_2010_(%),between_2011_and_2016_(%),single-family_homes_(%),semi-detached_or_row_houses_(%),buildings_with_less_than_5_floors_(%),buildings_with_5_or_more_floors_(%),mobile_homes_(%),university_(%),college_(%),secondary_(high)_school_(%),apprentice_or_trade_school_diploma_(%),no_diploma_(%),non-immigrant_population_(%),immigrant_population_(%),french_(%),english_(%),others_languages_(%),walk_score,rooms,bedrooms,basement_bedroom,bathrooms,powder_rooms,total_area,river_proximity,has_pool,n_parking,has_garage,is_devided,mr_distance,predicted,prediction_difference
0,"5050, Rue Bannantyne, apt. 203, Montréal (Verdun/Île-des-Soeurs), Neighbourhood Verdun",409000,45.456078999999995,-73.575949,7.0,8.0,5.0,9.0,6.0,5.0,8.0,10.0,7.0,10,3.0,9.0,9.0,10.0,5.0,8.0,5.0,2008.0,69229,5,7181,8,45,22,9,12,11,42,34,13,8,3,46,36,18,37,63,46,21,13,8,9,4,3,7,69,21,0,43,16,18,9,14,75,25,64.0,22.0,14.0,80.0,8.0,2.0,False,1.0,0.0,1014.0,False,False,1.0,True,True,5.660492193844704,442466.8,33466.81249999988
1,"201, Chemin de la Pointe-Sud, apt. 216, Montréal (Verdun/Île-des-Soeurs), Neighbourhood Île-des-Soeurs",680000,45.449346999999996,-73.553327,3.0,3.0,1.0,7.0,10.0,0.0,10.0,7.0,0.0,8,0.0,2.0,4.0,3.0,1.0,4.0,5.0,2006.0,69229,5,7181,8,45,22,9,12,11,42,34,13,8,3,46,36,18,37,63,46,21,13,8,9,4,3,7,69,21,0,43,16,18,9,14,75,25,64.0,22.0,14.0,11.0,6.0,3.0,False,2.0,0.0,1249.0,False,True,2.0,True,True,7.062361025112227,709663.44,29663.43749999965
2,"8800, Rue Verville, apt. 101, Montréal (Ahuntsic-Cartierville), Neighbourhood Ahuntsic West",283000,45.53658924,-73.64658957,8.0,10.0,5.0,3.0,6.0,2.0,0.0,9.0,7.0,8,4.0,10.0,6.0,8.0,6.0,9.0,4.0,2007.0,134245,6,5545,10,49,23,9,11,9,41,27,13,12,7,34,46,20,39,61,37,33,14,6,6,4,9,5,73,13,0,36,16,20,10,17,59,41,65.0,10.0,25.0,72.0,6.0,2.0,False,1.0,0.0,848.0,False,False,1.0,True,True,5.191899992782524,353701.6,70701.59374999988
3,"185, Rue du Séminaire, apt. 605, Montréal (Le Sud-Ouest), Neighbourhood Griffintown",339000,45.490915,-73.56077900000001,10.0,10.0,9.0,9.0,5.0,6.0,7.0,7.0,4.0,10,9.0,10.0,8.0,10.0,10.0,9.0,5.0,2013.0,80153,9,5070,8,50,22,9,11,7,46,32,11,7,4,44,32,24,35,65,43,18,11,5,10,13,2,7,71,20,0,38,16,19,9,18,74,26,59.0,26.0,15.0,70.0,4.0,1.0,False,1.0,0.0,621.0,False,True,0.0,False,True,3.280872276915672,383978.72,44978.71874999977
4,"7075, Rue Bombardier, apt. 108, Montréal (Anjou)",177800,45.606186,-73.588353,6.0,7.0,3.0,4.0,9.0,0.0,6.0,4.0,5.0,8,3.0,9.0,2.0,7.0,4.0,7.0,5.0,1993.0,42796,2,3103,10,45,26,10,12,7,38,31,13,12,7,38,41,21,44,56,15,49,16,10,10,1,8,9,65,18,0,25,17,23,14,20,66,34,76.0,8.0,16.0,53.0,6.0,1.0,False,1.0,0.0,586.0,False,False,1.0,False,True,11.326104218321884,187666.39,9866.390625000058
5,"1000, Rue Ottawa, apt. 823, Montréal (Le Sud-Ouest), Neighbourhood Griffintown",365000,45.494718,-73.55867099999999,10.0,10.0,9.0,10.0,5.0,6.0,3.0,9.0,3.0,10,9.0,10.0,9.0,10.0,10.0,10.0,3.0,2014.0,80153,9,5070,8,50,22,9,11,7,46,32,11,7,4,44,32,24,35,65,43,18,11,5,10,13,2,7,71,20,0,38,16,19,9,18,74,26,59.0,26.0,15.0,83.0,3.0,1.0,False,1.0,0.0,464.0,False,True,1.0,True,True,3.2622544292759645,364127.7,-872.3124999997672
6,"7905, Rue Saint-Hubert, apt. 301, Montréal (Villeray/Saint-Michel/Parc-Extension), Neighbourhood Villeray",389000,45.54565671,-73.62419113,10.0,10.0,8.0,9.0,5.0,5.0,7.0,9.0,8.0,10,6.0,10.0,10.0,10.0,8.0,9.0,5.0,2010.0,143853,1,8692,11,58,23,8,8,3,40,29,14,11,7,33,42,25,28,72,49,33,6,4,4,3,3,2,91,4,0,29,14,20,11,26,56,44,57.0,10.0,33.0,85.0,5.0,2.0,False,1.0,0.0,729.0,False,False,0.0,True,True,5.001570293776762,347499.06,-41500.93750000035
7,"266, Rue Argyle, Montréal (Verdun/Île-des-Soeurs), Neighbourhood Verdun",429000,45.45288237,-73.56885866,7.0,7.0,5.0,9.0,6.0,5.0,6.0,10.0,3.0,10,4.0,9.0,9.0,10.0,6.0,8.0,6.0,1930.0,69229,5,7181,8,45,22,9,12,11,42,34,13,8,3,46,36,18,37,63,46,21,13,8,9,4,3,7,69,21,0,43,16,18,9,14,75,25,64.0,22.0,14.0,71.0,7.0,3.0,False,1.0,0.0,1442.0,False,False,0.0,False,False,6.1818443245878365,501127.38,72127.37499999988
8,"6890, Rue Lacroix, Montréal (Le Sud-Ouest), Neighbourhood Saint-Paul/Émard",139000,45.44806335,-73.60140104,6.0,8.0,4.0,6.0,7.0,3.0,4.0,8.0,4.0,10,3.0,7.0,5.0,7.0,4.0,9.0,7.0,1955.0,80153,9,5070,8,50,22,9,11,7,46,32,11,7,4,44,32,24,35,65,43,18,11,5,10,13,2,7,71,20,0,38,16,19,9,18,74,26,59.0,26.0,15.0,50.0,3.0,1.0,False,1.0,0.0,450.0,False,False,0.0,False,True,6.287065149445804,179729.64,40729.64062499997
9,"440, Rue De La Gauchetière Est, apt. 305, Montréal (Ville-Marie), Neighbourhood Central",315000,45.512515,-73.556237,10.0,10.0,10.0,8.0,4.0,7.0,6.0,4.0,5.0,10,10.0,9.0,8.0,10.0,10.0,10.0,6.0,2013.0,87168,6,6414,10,58,18,7,8,9,55,31,9,4,2,57,26,17,27,73,33,28,11,8,13,8,1,2,48,49,0,52,15,18,6,9,63,37,54.0,26.0,20.0,89.0,4.0,1.0,False,1.0,0.0,623.0,False,False,0.0,False,True,3.3803912332650583,372006.66,57006.656249999825
10,"1200, Rue Saint-Alexandre, apt. 622, Montréal (Ville-Marie), Neighbourhood Central West",360000,45.50463,-73.566429,10.0,10.0,10.0,6.0,5.0,7.0,3.0,7.0,7.0,10,10.0,10.0,10.0,10.0,10.0,10.0,4.0,2009.0,87168,6,6414,10,58,18,7,8,9,55,31,9,4,2,57,26,17,27,73,33,28,11,8,13,8,1,2,48,49,0,52,15,18,6,9,63,37,54.0,26.0,20.0,98.0,3.0,1.0,False,1.0,0.0,369.0,False,False,0.0,False,True,2.468483949975715,298473.16,-61526.84375000012
11,"7700, Rue du Mans, apt. 101, Montréal (Saint-Léonard)",988000,45.58408,-73.584876,7.0,8.0,5.0,3.0,7.0,0.0,4.0,9.0,4.0,8,4.0,9.0,5.0,10.0,6.0,7.0,3.0,2011.0,78305,3,5813,11,48,27,9,10,5,30,29,16,15,9,30,49,21,35,65,14,64,8,5,6,2,6,3,83,8,0,22,16,23,14,26,51,49,44.0,22.0,34.0,64.0,12.0,5.0,False,3.0,0.0,2659.0,False,False,5.0,True,True,8.902357235434833,1040157.0,52157.000000000466
12,"4790, Avenue Victoria, Montréal (Côte-des-Neiges/Notre-Dame-de-Grâce), Neighbourhood Côte-des-Neiges",748000,45.48611086,-73.61922813,9.0,9.0,5.0,3.0,8.0,4.0,7.0,9.0,9.0,8,4.0,7.0,8.0,8.0,6.0,9.0,8.0,1929.0,166011,1,7718,11,54,21,8,9,9,40,29,15,11,6,33,45,22,27,73,51,30,8,5,4,3,3,6,69,22,0,47,16,19,6,12,50,50,33.0,39.0,28.0,45.0,11.0,4.0,False,2.0,1.0,1860.0,False,False,2.0,True,True,2.6302171131202567,858667.6,110667.62499999988
13,"299, Rue de la Rotonde, apt. 204, Montréal (Verdun/Île-des-Soeurs), Neighbourhood Île-des-Soeurs",528000,45.47305019,-73.53844783,6.0,5.0,3.0,5.0,10.0,0.0,9.0,1.0,3.0,8,4.0,6.0,2.0,5.0,4.0,6.0,3.0,2014.0,69229,5,7181,8,45,22,9,12,11,42,34,13,8,3,46,36,18,37,63,46,21,13,8,9,4,3,7,69,21,0,43,16,18,9,14,75,25,64.0,22.0,14.0,35.0,5.0,1.0,False,1.0,1.0,1043.0,True,True,1.0,True,True,5.822355944679923,589595.25,61595.25000000012
14,"4755, Avenue Papineau, apt. 209, Montréal (Le Plateau-Mont-Royal), Neighbourhood Le Plateau-Mont-Royal",450000,45.534439,-73.577269,10.0,10.0,10.0,10.0,6.0,7.0,0.0,9.0,8.0,10,10.0,10.0,9.0,10.0,10.0,9.0,6.0,2017.0,104000,4,12855,8,52,20,8,11,8,52,30,10,6,2,52,32,16,28,72,57,23,7,5,5,2,1,2,82,16,0,57,14,16,5,8,73,27,67.0,23.0,10.0,90.0,8.0,2.0,False,1.0,0.0,783.0,False,False,1.0,True,True,3.6980410107454182,510301.2,60301.18750000006
15,"4225, Rue Saint-Dominique, apt. 209, Montréal (Le Plateau-Mont-Royal), Neighbourhood Le Plateau-Mont-Royal",549000,45.518902000000004,-73.581446,10.0,10.0,10.0,10.0,3.0,7.0,6.0,10.0,8.0,10,10.0,10.0,9.0,10.0,10.0,9.0,5.0,1952.0,104000,4,12855,8,52,20,8,11,8,52,30,10,6,2,52,32,16,28,72,57,23,7,5,5,2,1,2,82,16,0,57,14,16,5,8,73,27,67.0,23.0,10.0,96.0,1.0,1.0,False,1.0,0.0,950.0,False,False,1.0,True,True,2.0564908131434403,498942.34,-50057.656250000466
16,"1451, Rue Parthenais, apt. 114, Montréal (Ville-Marie), Neighbourhood Central",434800,45.5267,-73.549646,10.0,10.0,9.0,10.0,5.0,6.0,5.0,10.0,9.0,10,9.0,10.0,6.0,10.0,9.0,10.0,4.0,2007.0,87168,6,6414,10,58,18,7,8,9,55,31,9,4,2,57,26,17,27,73,33,28,11,8,13,8,1,2,48,49,0,52,15,18,6,9,63,37,54.0,26.0,20.0,85.0,4.0,2.0,False,1.0,0.0,1005.0,False,False,1.0,True,True,4.50753861681572,413591.8,-21208.187499999884
17,"350, Rue Berri, apt. 501, Montréal (Ville-Marie), Neighbourhood Old Montréal",929000,45.51090604,-73.55039425,10.0,10.0,10.0,8.0,5.0,7.0,0.0,3.0,3.0,10,10.0,10.0,8.0,8.0,10.0,10.0,7.0,2014.0,87168,6,6414,10,58,18,7,8,9,55,31,9,4,2,57,26,17,27,73,33,28,11,8,13,8,1,2,48,49,0,52,15,18,6,9,63,37,54.0,26.0,20.0,83.0,7.0,2.0,False,2.0,0.0,1076.0,True,False,1.0,True,True,3.7843058217109613,759590.4,-169409.62499999953
18,"4253, Rue De Richelieu, Montréal (Le Sud-Ouest), Neighbourhood Saint-Henri/Petite Bourgogne",310000,45.4784162,-73.59176036,10.0,10.0,7.0,6.0,6.0,6.0,3.0,9.0,10.0,8,6.0,10.0,10.0,10.0,8.0,9.0,6.0,2010.0,80153,9,5070,8,50,22,9,11,7,46,32,11,7,4,44,32,24,35,65,43,18,11,5,10,13,2,7,71,20,0,38,16,19,9,18,74,26,59.0,26.0,15.0,79.0,7.0,2.0,False,1.0,0.0,806.0,False,False,0.0,False,True,2.9484842447458126,421068.0,111067.99999999983
19,"115, Chemin de la Côte-Sainte-Catherine, apt. 601, Montréal (Outremont)",679000,45.516172,-73.594699,10.0,10.0,10.0,9.0,6.0,6.0,3.0,9.0,9.0,10,10.0,9.0,6.0,10.0,10.0,9.0,9.0,1986.0,23954,2,6254,6,29,19,9,15,27,33,30,14,13,10,34,50,16,54,46,73,16,4,4,2,1,8,14,59,19,0,59,14,15,3,10,74,26,61.0,19.0,20.0,90.0,5.0,2.0,False,2.0,0.0,1214.0,False,True,1.0,True,True,1.3185016372333471,651262.2,-27737.812499999534
20,"90, Rue des Soeurs-Grises, apt. 202, Montréal (Ville-Marie), Neighbourhood La Cité du Multimédia",545000,45.498789,-73.554597,10.0,10.0,10.0,9.0,5.0,9.0,4.0,8.0,3.0,10,10.0,10.0,8.0,10.0,10.0,9.0,4.0,2003.0,87168,6,6414,10,58,18,7,8,9,55,31,9,4,2,57,26,17,27,73,33,28,11,8,13,8,1,2,48,49,0,52,15,18,6,9,63,37,54.0,26.0,20.0,89.0,3.0,1.0,False,1.0,0.0,1200.0,False,True,1.0,True,True,3.450854582793681,598402.2,53402.18750000035
21,"3940, Chemin de la Côte-des-Neiges, apt. B84, Montréal (Ville-Marie), Neighbourhood Central West",699000,45.495416,-73.59496899999999,10.0,10.0,7.0,8.0,8.0,5.0,3.0,10.0,10.0,10,8.0,9.0,6.0,9.0,9.0,9.0,9.0,1929.0,87168,6,6414,10,58,18,7,8,9,55,31,9,4,2,57,26,17,27,73,33,28,11,8,13,8,1,2,48,49,0,52,15,18,6,9,63,37,54.0,26.0,20.0,49.0,5.0,2.0,False,1.0,1.0,1468.0,False,False,1.0,True,False,1.0453874554010805,827836.06,128836.06250000047
22,"3525, Rue Saint-Urbain, Montréal (Le Plateau-Mont-Royal), Neighbourhood Le Plateau-Mont-Royal",499000,45.51198082,-73.57160698,10.0,10.0,10.0,10.0,5.0,7.0,3.0,7.0,10.0,10,10.0,9.0,10.0,10.0,10.0,10.0,6.0,1900.0,104000,4,12855,8,52,20,8,11,8,52,30,10,6,2,52,32,16,28,72,57,23,7,5,5,2,1,2,82,16,0,57,14,16,5,8,73,27,67.0,23.0,10.0,95.0,7.0,3.0,False,1.0,0.0,1145.0,False,False,0.0,False,True,2.223707337842013,560746.06,61746.06250000041
23,"500, Rue de la Montagne, apt. 710, Montréal (Ville-Marie), Neighbourhood Central",849000,45.49306774,-73.56544216,10.0,10.0,10.0,8.0,5.0,6.0,0.0,8.0,6.0,10,10.0,10.0,8.0,10.0,10.0,10.0,6.0,1993.0,87168,6,6414,10,58,18,7,8,9,55,31,9,4,2,57,26,17,27,73,33,28,11,8,13,8,1,2,48,49,0,52,15,18,6,9,63,37,54.0,26.0,20.0,90.0,9.0,3.0,False,2.0,0.0,1549.0,False,False,2.0,True,True,2.8482271907582715,889068.2,40068.1875
24,"4427, Rue Marquette, Montréal (Le Plateau-Mont-Royal), Neighbourhood Le Plateau-Mont-Royal",592000,45.531833,-73.574155,10.0,10.0,10.0,10.0,3.0,7.0,7.0,9.0,9.0,10,10.0,10.0,9.0,10.0,10.0,9.0,8.0,1927.0,104000,4,12855,8,52,20,8,11,8,52,30,10,6,2,52,32,16,28,72,57,23,7,5,5,2,1,2,82,16,0,57,14,16,5,8,73,27,67.0,23.0,10.0,93.0,5.0,2.0,False,1.0,0.0,916.0,False,False,0.0,False,False,3.560965031655118,458307.75,-133692.24999999953
25,"5090, Avenue Charlemagne, Montréal (Rosemont/La Petite-Patrie), Neighbourhood Old Rosemont",599800,45.556430999999996,-73.565662,8.0,8.0,5.0,7.0,6.0,4.0,4.0,9.0,5.0,10,5.0,9.0,8.0,10.0,6.0,9.0,7.0,2000.0,139590,4,8741,8,52,22,9,11,7,49,29,11,8,3,43,36,21,30,70,52,24,9,5,5,4,2,3,89,6,0,41,17,17,10,15,77,23,83.0,6.0,11.0,63.0,6.0,4.0,False,1.0,0.0,1471.0,False,False,2.0,True,True,6.297412693493802,586938.9,-12861.124999999534
26,"6455, boulevard De Maisonneuve Ouest, apt. 6, Montréal (Côte-des-Neiges/Notre-Dame-de-Grâce), Neighbourhood Notre-Dame-de-Grâce",309000,45.462996000000004,-73.624257,7.0,8.0,5.0,5.0,7.0,3.0,0.0,10.0,10.0,7,4.0,9.0,10.0,7.0,5.0,8.0,8.0,2000.0,166011,1,7718,11,54,21,8,9,9,40,29,15,11,6,33,45,22,27,73,51,30,8,5,4,3,3,6,69,22,0,47,16,19,6,12,50,50,33.0,39.0,28.0,68.0,4.0,2.0,False,1.0,0.0,941.0,False,False,120.0,False,True,5.051152958915117,341183.3,32183.31249999994
27,"1240, Rue Saint-Timothée, apt. 6, Montréal (Ville-Marie), Neighbourhood Village",599000,45.516328,-73.556511,10.0,10.0,10.0,9.0,4.0,7.0,7.0,6.0,5.0,10,10.0,10.0,9.0,10.0,10.0,10.0,6.0,2006.0,87168,6,6414,10,58,18,7,8,9,55,31,9,4,2,57,26,17,27,73,33,28,11,8,13,8,1,2,48,49,0,52,15,18,6,9,63,37,54.0,26.0,20.0,93.0,9.0,2.0,False,2.0,0.0,1125.0,False,False,1.0,True,True,3.4953676356495635,647224.0,48224.0
28,"6300, Place Northcrest, apt. 6D, Montréal (Côte-des-Neiges/Notre-Dame-de-Grâce), Neighbourhood Côte-des-Neiges",1459000,45.51226035,-73.62263124,9.0,10.0,5.0,5.0,4.0,4.0,6.0,10.0,10.0,10,5.0,9.0,8.0,10.0,7.0,9.0,9.0,1989.0,166011,1,7718,11,54,21,8,9,9,40,29,15,11,6,33,45,22,27,73,51,30,8,5,4,3,3,6,69,22,0,47,16,19,6,12,50,50,33.0,39.0,28.0,55.0,10.0,2.0,False,2.0,0.0,2121.0,False,True,2.0,True,True,2.0944724208793253,1457735.1,-1264.8750000002328
29,"3239, boulevard Édouard-Montpetit, apt. 5, Montréal (Côte-des-Neiges/Notre-Dame-de-Grâce), Neighbourhood Côte-des-Neiges",415000,45.49947,-73.622624,9.0,9.0,5.0,5.0,5.0,4.0,5.0,9.0,10.0,9,5.0,10.0,9.0,10.0,8.0,9.0,7.0,1929.0,166011,1,7718,11,54,21,8,9,9,40,29,15,11,6,33,45,22,27,73,51,30,8,5,4,3,3,6,69,22,0,47,16,19,6,12,50,50,33.0,39.0,28.0,83.0,5.0,2.0,False,1.0,0.0,1212.0,False,False,1.0,True,False,1.9929195364916523,513213.88,98213.87499999988
30,"366, Rue Mayor, apt. 402, Montréal (Ville-Marie), Neighbourhood Central",279000,45.506408,-73.568248,10.0,10.0,10.0,7.0,5.0,7.0,3.0,8.0,8.0,10,10.0,10.0,9.0,10.0,10.0,10.0,3.0,2014.0,87168,6,6414,10,58,18,7,8,9,55,31,9,4,2,57,26,17,27,73,33,28,11,8,13,8,1,2,48,49,0,52,15,18,6,9,63,37,54.0,26.0,20.0,98.0,4.0,1.0,False,1.0,0.0,394.0,False,False,0.0,False,True,2.335762951181505,324123.12,45123.12499999988
31,"3860, Rue Masson, apt. 3, Montréal (Rosemont/La Petite-Patrie), Neighbourhood Old Rosemont",397000,45.55680359,-73.56972719,8.0,9.0,7.0,8.0,6.0,4.0,7.0,10.0,7.0,10,5.0,10.0,10.0,10.0,6.0,9.0,5.0,2007.0,139590,4,8741,8,52,22,9,11,7,49,29,11,8,3,43,36,21,30,70,52,24,9,5,5,4,2,3,89,6,0,41,17,17,10,15,77,23,83.0,6.0,11.0,70.0,6.0,3.0,False,1.0,0.0,898.0,False,False,1.0,False,True,6.215855965099761,359170.56,-37829.43749999977
32,"2323, Rue Le Caron, apt. 259, Montréal (Le Sud-Ouest), Neighbourhood Saint-Paul/Émard",319000,45.46231865,-73.59582885,8.0,8.0,5.0,9.0,6.0,5.0,8.0,8.0,7.0,10,4.0,10.0,8.0,10.0,6.0,8.0,8.0,2010.0,80153,9,5070,8,50,22,9,11,7,46,32,11,7,4,44,32,24,35,65,43,18,11,5,10,13,2,7,71,20,0,38,16,19,9,18,74,26,59.0,26.0,15.0,64.0,3.0,1.0,False,1.0,0.0,604.0,False,False,2.0,True,True,4.7000382825005325,320045.88,1045.875
33,"1250, Rue de la Visitation, apt. 101, Montréal (Ville-Marie), Neighbourhood Village",399000,45.518682,-73.554462,10.0,10.0,10.0,10.0,4.0,7.0,7.0,8.0,4.0,10,10.0,10.0,6.0,10.0,10.0,10.0,5.0,1987.0,87168,6,6414,10,58,18,7,8,9,55,31,9,4,2,57,26,17,27,73,33,28,11,8,13,8,1,2,48,49,0,52,15,18,6,9,63,37,54.0,26.0,20.0,87.0,6.0,1.0,False,1.0,0.0,530.0,False,False,0.0,False,True,3.74583564622951,358014.66,-40985.34374999977
34,"318, Rue Marie-Anne Est, apt. B, Montréal (Le Plateau-Mont-Royal), Neighbourhood Le Plateau-Mont-Royal",329000,45.522107,-73.581176,10.0,10.0,10.0,10.0,2.0,7.0,5.0,10.0,7.0,10,10.0,10.0,9.0,10.0,10.0,10.0,5.0,1935.0,104000,4,12855,8,52,20,8,11,8,52,30,10,6,2,52,32,16,28,72,57,23,7,5,5,2,1,2,82,16,0,57,14,16,5,8,73,27,67.0,23.0,10.0,96.0,5.0,1.0,False,1.0,0.0,630.0,False,False,0.0,False,False,2.355427364783017,346157.5,17157.499999999767
35,"4721, Rue Rivard, Montréal (Le Plateau-Mont-Royal), Neighbourhood Le Plateau-Mont-Royal",499000,45.525828999999995,-73.584964,10.0,10.0,10.0,10.0,2.0,7.0,5.0,10.0,7.0,10,10.0,10.0,10.0,10.0,10.0,10.0,6.0,1998.0,104000,4,12855,8,52,20,8,11,8,52,30,10,6,2,52,32,16,28,72,57,23,7,5,5,2,1,2,82,16,0,57,14,16,5,8,73,27,67.0,23.0,10.0,95.0,5.0,2.0,False,1.0,1.0,1086.0,False,False,0.0,False,True,2.577409510408037,536416.94,37416.93750000041
36,"5235, Avenue De Gaspé, apt. 8, Montréal (Le Plateau-Mont-Royal), Neighbourhood Mile-End",675000,45.526365000000006,-73.593273,10.0,10.0,10.0,10.0,2.0,6.0,8.0,9.0,10.0,10,10.0,10.0,9.0,10.0,10.0,9.0,5.0,2001.0,104000,4,12855,8,52,20,8,11,8,52,30,10,6,2,52,32,16,28,72,57,23,7,5,5,2,1,2,82,16,0,57,14,16,5,8,73,27,67.0,23.0,10.0,95.0,5.0,3.0,False,1.0,0.0,1260.0,False,False,0.0,True,True,2.453979551824688,672921.8,-2078.187499999767
37,"2535, Rue Modugno, apt. 704, Montréal (Saint-Laurent), Neighbourhood Saint-Laurent West",486000,45.50690068,-73.69856408,6.0,7.0,3.0,8.0,7.0,0.0,9.0,6.0,10.0,9,4.0,7.0,6.0,6.0,4.0,7.0,5.0,2004.0,98828,5,2299,10,42,24,10,13,12,28,27,17,17,11,29,53,18,49,51,27,31,12,9,16,6,11,15,45,30,0,39,16,21,7,17,45,55,37.0,25.0,38.0,36.0,5.0,2.0,False,2.0,0.0,1301.0,False,False,2.0,True,True,7.833152045804168,520629.1,34629.093749999534
38,"4392, Avenue Beaconsfield, Montréal (Côte-des-Neiges/Notre-Dame-de-Grâce), Neighbourhood Notre-Dame-de-Grâce",675000,45.470377,-73.629809,8.0,8.0,5.0,6.0,6.0,5.0,8.0,9.0,9.0,8,4.0,9.0,10.0,10.0,6.0,8.0,9.0,1931.0,166011,1,7718,11,54,21,8,9,9,40,29,15,11,6,33,45,22,27,73,51,30,8,5,4,3,3,6,69,22,0,47,16,19,6,12,50,50,33.0,39.0,28.0,71.0,6.0,2.0,False,2.0,0.0,1168.0,False,False,0.0,False,False,4.53359600810216,516657.8,-158342.18749999977
39,"3950, Rue Claude, apt. 301, Montréal (Verdun/Île-des-Soeurs), Neighbourhood Verdun",307000,45.464628999999995,-73.573134,9.0,9.0,5.0,10.0,6.0,6.0,8.0,9.0,4.0,9,4.0,10.0,10.0,10.0,6.0,9.0,6.0,1986.0,69229,5,7181,8,45,22,9,12,11,42,34,13,8,3,46,36,18,37,63,46,21,13,8,9,4,3,7,69,21,0,43,16,18,9,14,75,25,64.0,22.0,14.0,78.0,5.0,2.0,False,1.0,0.0,780.0,False,False,1.0,False,True,4.847795838994049,318027.44,11027.437500000058
40,"5028, Avenue des Érables, Montréal (Le Plateau-Mont-Royal), Neighbourhood Le Plateau-Mont-Royal",575000,45.538195,-73.577434,10.0,10.0,9.0,10.0,4.0,6.0,3.0,10.0,7.0,10,9.0,10.0,8.0,10.0,9.0,9.0,6.0,1910.0,104000,4,12855,8,52,20,8,11,8,52,30,10,6,2,52,32,16,28,72,57,23,7,5,5,2,1,2,82,16,0,57,14,16,5,8,73,27,67.0,23.0,10.0,80.0,6.0,2.0,False,1.0,0.0,1065.0,False,False,1.0,False,True,4.072303495440674,513502.25,-61497.75000000012
41,"200, Avenue des Sommets, apt. 807, Montréal (Verdun/Île-des-Soeurs), Neighbourhood Île-des-Soeurs",495000,45.450053000000004,-73.54818,3.0,3.0,1.0,7.0,9.0,0.0,9.0,8.0,0.0,9,0.0,2.0,5.0,3.0,1.0,5.0,6.0,2004.0,69229,5,7181,8,45,22,9,12,11,42,34,13,8,3,46,36,18,37,63,46,21,13,8,9,4,3,7,69,21,0,43,16,18,9,14,75,25,64.0,22.0,14.0,14.0,4.0,2.0,False,1.0,1.0,867.0,True,True,1.0,True,True,7.202930943777697,495164.84,164.84374999959255
42,"3953, Avenue du Mont-Royal Est, apt. 05, Montréal (Rosemont/La Petite-Patrie), Neighbourhood Shop Angus",419000,45.554605,-73.560055,8.0,8.0,5.0,8.0,6.0,3.0,4.0,9.0,5.0,10,5.0,9.0,6.0,10.0,6.0,9.0,7.0,2005.0,139590,4,8741,8,52,22,9,11,7,49,29,11,8,3,43,36,21,30,70,52,24,9,5,5,4,2,3,89,6,0,41,17,17,10,15,77,23,83.0,6.0,11.0,63.0,5.0,2.0,False,1.0,0.0,1004.0,False,False,1.0,False,True,6.30513948201656,369319.75,-49680.24999999977
43,"185, Rue du Séminaire, apt. 307, Montréal (Le Sud-Ouest), Neighbourhood Griffintown",340000,45.490915,-73.56077900000001,10.0,10.0,9.0,9.0,5.0,6.0,7.0,7.0,4.0,10,9.0,10.0,8.0,10.0,10.0,9.0,5.0,2013.0,80153,9,5070,8,50,22,9,11,7,46,32,11,7,4,44,32,24,35,65,43,18,11,5,10,13,2,7,71,20,0,38,16,19,9,18,74,26,59.0,26.0,15.0,70.0,3.0,1.0,False,1.0,0.0,589.0,False,True,0.0,False,True,3.280872276915672,345075.06,5075.062500000116
44,"4118, Avenue du Parc-La Fontaine, Montréal (Le Plateau-Mont-Royal), Neighbourhood Le Plateau-Mont-Royal",838000,45.52496926,-73.57342174,10.0,10.0,10.0,10.0,5.0,7.0,5.0,9.0,8.0,10,10.0,9.0,8.0,10.0,10.0,9.0,10.0,1900.0,104000,4,12855,8,52,20,8,11,8,52,30,10,6,2,52,32,16,28,72,57,23,7,5,5,2,1,2,82,16,0,57,14,16,5,8,73,27,67.0,23.0,10.0,90.0,10.0,4.0,False,2.0,0.0,1724.0,False,False,1.0,True,True,2.974945917870695,889906.25,51906.250000000466
45,"950, Rue Notre-Dame Ouest, apt. 628, Montréal (Le Sud-Ouest), Neighbourhood Griffintown",375000,45.496512,-73.56166999999999,10.0,10.0,10.0,8.0,4.0,6.0,5.0,10.0,4.0,10,10.0,10.0,9.0,10.0,10.0,10.0,3.0,2010.0,80153,9,5070,8,50,22,9,11,7,46,32,11,7,4,44,32,24,35,65,43,18,11,5,10,13,2,7,71,20,0,38,16,19,9,18,74,26,59.0,26.0,15.0,88.0,3.0,1.0,False,1.0,0.0,513.0,False,False,1.0,True,True,2.977127256590476,372908.5,-2091.500000000058
46,"2385, Rue des Équinoxes, apt. 508, Montréal (Saint-Laurent), Neighbourhood New Saint-Laurent/Bois-Franc",488000,45.51887022,-73.71077415,6.0,6.0,2.0,4.0,10.0,2.0,0.0,7.0,10.0,6,2.0,9.0,10.0,6.0,5.0,7.0,3.0,2017.0,98828,5,2299,10,42,24,10,13,12,28,27,17,17,11,29,53,18,49,51,27,31,12,9,16,6,11,15,45,30,0,39,16,21,7,17,45,55,37.0,25.0,38.0,33.0,7.0,2.0,False,2.0,0.0,830.0,False,True,1.0,True,True,8.922503081065774,509995.2,21995.18749999965
47,"2300, Rue Wilfrid-Reid, apt. 404, Montréal (Saint-Laurent), Neighbourhood New Saint-Laurent/Bois-Franc",608000,45.51804937,-73.71193448,6.0,6.0,2.0,4.0,10.0,2.0,0.0,7.0,10.0,6,2.0,9.0,10.0,6.0,5.0,7.0,3.0,2019.0,98828,5,2299,10,42,24,10,13,12,28,27,17,17,11,29,53,18,49,51,27,31,12,9,16,6,11,15,45,30,0,39,16,21,7,17,45,55,37.0,25.0,38.0,37.0,5.0,3.0,False,2.0,0.0,1054.0,False,False,1.0,True,True,8.99587396864335,579736.4,-28263.624999999767
48,"2555, Rue Grenet, apt. 210, Montréal (Saint-Laurent), Neighbourhood Others",299000,45.52261936,-73.7046512,6.0,7.0,3.0,4.0,7.0,2.0,4.0,10.0,7.0,8,3.0,8.0,10.0,8.0,5.0,9.0,5.0,2011.0,98828,5,2299,10,42,24,10,13,12,28,27,17,17,11,29,53,18,49,51,27,31,12,9,16,6,11,15,45,30,0,39,16,21,7,17,45,55,37.0,25.0,38.0,52.0,6.0,2.0,False,1.0,0.0,687.0,False,False,1.0,True,True,8.541512208783914,307806.5,8806.499999999942
49,"5231, Rue Riviera, apt. 303, Montréal (Pierrefonds-Roxboro), Neighbourhood Pierrefonds/Central East",227000,45.51509,-73.827906,4.0,3.0,1.0,5.0,9.0,0.0,8.0,5.0,9.0,9,3.0,6.0,4.0,4.0,3.0,4.0,6.0,1987.0,69297,1,2547,8,33,24,12,19,13,24,28,18,19,11,30,53,17,70,30,16,39,18,11,13,3,51,13,31,5,0,32,20,25,9,15,59,41,30.0,45.0,25.0,36.0,8.0,2.0,False,1.0,0.0,939.0,False,False,1.0,False,True,17.94533549671202,218568.62,-8431.375
50,"4805A, Avenue Victoria, Montréal (Côte-des-Neiges/Notre-Dame-de-Grâce), Neighbourhood Côte-des-Neiges",449000,45.4862473,-73.61941796,9.0,9.0,5.0,3.0,8.0,4.0,7.0,9.0,9.0,8,4.0,7.0,8.0,8.0,6.0,9.0,8.0,1931.0,166011,1,7718,11,54,21,8,9,9,40,29,15,11,6,33,45,22,27,73,51,30,8,5,4,3,3,6,69,22,0,47,16,19,6,12,50,50,33.0,39.0,28.0,54.0,6.0,1.0,False,1.0,0.0,848.0,False,False,0.0,False,True,2.627731201469455,377970.16,-71029.84374999994
51,"836, 7e Avenue, apt. 002, Montréal (Rivière-des-Prairies/Pointe-aux-Trembles), Neighbourhood Pointe-aux-Trembles",189995,45.63856956,-73.49664083,4.0,4.0,3.0,8.0,8.0,3.0,9.0,9.0,7.0,6,4.0,7.0,8.0,5.0,5.0,4.0,5.0,2013.0,106743,0,2515,7,38,25,12,17,8,28,32,17,15,8,34,43,23,64,36,13,28,31,14,11,3,26,24,47,3,0,16,17,25,18,24,76,24,71.0,16.0,13.0,41.0,6.0,1.0,False,1.0,0.0,611.0,False,False,1.0,False,True,16.865031388212593,182344.4,-7650.593750000116
52,"1170, Rue Berri, apt. 35, Montréal (Ville-Marie), Neighbourhood Central",449900,45.51413551,-73.55890409,10.0,10.0,10.0,9.0,6.0,7.0,1.0,5.0,6.0,10,10.0,10.0,9.0,10.0,10.0,10.0,4.0,1987.0,87168,6,6414,10,58,18,7,8,9,55,31,9,4,2,57,26,17,27,73,33,28,11,8,13,8,1,2,48,49,0,52,15,18,6,9,63,37,54.0,26.0,20.0,93.0,7.0,1.0,False,1.0,0.0,612.0,False,False,0.0,False,True,3.2349979416304238,343838.94,-106061.06250000035
53,"441, Avenue du Président-Kennedy, apt. 1101, Montréal (Ville-Marie), Neighbourhood Central",399000,45.506778000000004,-73.570528,10.0,10.0,10.0,8.0,5.0,7.0,3.0,9.0,9.0,10,10.0,10.0,9.0,10.0,10.0,10.0,5.0,2007.0,87168,6,6414,10,58,18,7,8,9,55,31,9,4,2,57,26,17,27,73,33,28,11,8,13,8,1,2,48,49,0,52,15,18,6,9,63,37,54.0,26.0,20.0,99.0,6.0,2.0,False,2.0,0.0,818.0,False,False,0.0,False,True,2.16313375695172,479867.94,80867.93750000023
54,"6340, 21e Avenue, apt. 201, Montréal (Rosemont/La Petite-Patrie), Neighbourhood Rosemont North",399700,45.561063,-73.578517,8.0,9.0,5.0,7.0,6.0,4.0,8.0,9.0,8.0,9,5.0,10.0,10.0,10.0,6.0,9.0,5.0,2004.0,139590,4,8741,8,52,22,9,11,7,49,29,11,8,3,43,36,21,30,70,52,24,9,5,5,4,2,3,89,6,0,41,17,17,10,15,77,23,83.0,6.0,11.0,63.0,5.0,2.0,False,1.0,0.0,1042.0,False,False,1.0,True,True,6.465758656235253,426099.28,26399.281250000116
55,"2372, Avenue de Hampton, Montréal (Côte-des-Neiges/Notre-Dame-de-Grâce), Neighbourhood Notre-Dame-de-Grâce",325000,45.467887,-73.62003008,8.0,8.0,5.0,6.0,6.0,6.0,2.0,9.0,9.0,8,4.0,10.0,10.0,10.0,6.0,9.0,9.0,1924.0,166011,1,7718,11,54,21,8,9,9,40,29,15,11,6,33,45,22,27,73,51,30,8,5,4,3,3,6,69,22,0,47,16,19,6,12,50,50,33.0,39.0,28.0,83.0,8.0,2.0,False,2.0,1.0,1288.0,False,False,0.0,False,False,4.421289544555046,422284.06,97284.06250000012
56,"555, boulevard René-Lévesque Est, apt. 803, Montréal (Ville-Marie), Neighbourhood Central",379000,45.51437,-73.556781,10.0,10.0,10.0,9.0,6.0,7.0,3.0,5.0,5.0,10,10.0,10.0,10.0,10.0,10.0,10.0,4.0,2010.0,87168,6,6414,10,58,18,7,8,9,55,31,9,4,2,57,26,17,27,73,33,28,11,8,13,8,1,2,48,49,0,52,15,18,6,9,63,37,54.0,26.0,20.0,92.0,4.0,1.0,False,1.0,0.0,636.0,False,True,0.0,False,True,3.3999243570885573,379785.1,785.0937499998254
57,"412, Rue Saint-Claude, apt. 307, Montréal (Ville-Marie), Neighbourhood Old Montréal",995000,45.50860925,-73.55221964,10.0,10.0,10.0,8.0,5.0,9.0,5.0,4.0,2.0,10,10.0,10.0,10.0,10.0,10.0,10.0,4.0,1999.0,87168,6,6414,10,58,18,7,8,9,55,31,9,4,2,57,26,17,27,73,33,28,11,8,13,8,1,2,48,49,0,52,15,18,6,9,63,37,54.0,26.0,20.0,87.0,6.0,3.0,False,2.0,0.0,1704.0,False,False,1.0,True,True,3.6039751944021137,917946.6,-77053.375
58,"1150, Rue Saint-Denis, apt. 512, Montréal (Ville-Marie), Neighbourhood Central",369000,45.51279792,-73.55850935,10.0,10.0,10.0,9.0,5.0,7.0,2.0,5.0,5.0,10,10.0,10.0,8.0,10.0,10.0,10.0,3.0,2013.0,87168,6,6414,10,58,18,7,8,9,55,31,9,4,2,57,26,17,27,73,33,28,11,8,13,8,1,2,48,49,0,52,15,18,6,9,63,37,54.0,26.0,20.0,93.0,4.0,1.0,False,1.0,0.0,538.0,False,False,0.0,False,True,3.2186333588342046,365814.75,-3185.2500000001164
59,"2000, boulevard René-Lévesque Ouest, apt. 405, Montréal (Ville-Marie), Neighbourhood Central West",515888,45.489532000000004,-73.578687,10.0,10.0,10.0,4.0,6.0,7.0,0.0,10.0,10.0,10,9.0,9.0,8.0,9.0,10.0,10.0,7.0,2019.0,87168,6,6414,10,58,18,7,8,9,55,31,9,4,2,57,26,17,27,73,33,28,11,8,13,8,1,2,48,49,0,52,15,18,6,9,63,37,54.0,26.0,20.0,87.0,5.0,2.0,False,1.0,0.0,638.0,False,True,0.0,False,True,2.2542424837024715,513555.12,-2332.8750000004657
60,"733, Rue Argyle, apt. 6, Montréal (Verdun/Île-des-Soeurs), Neighbourhood Verdun",460000,45.452985999999996,-73.574416,7.0,7.0,5.0,9.0,6.0,5.0,8.0,10.0,5.0,10,4.0,9.0,8.0,10.0,6.0,8.0,5.0,2019.0,69229,5,7181,8,45,22,9,12,11,42,34,13,8,3,46,36,18,37,63,46,21,13,8,9,4,3,7,69,21,0,43,16,18,9,14,75,25,64.0,22.0,14.0,78.0,4.0,2.0,False,1.0,0.0,914.0,False,False,0.0,True,True,6.024507923928892,412713.16,-47286.84375000012
61,"4595, Rue de Mentana, Montréal (Le Plateau-Mont-Royal), Neighbourhood Le Plateau-Mont-Royal",549000,45.527863,-73.581948,10.0,10.0,10.0,10.0,2.0,7.0,8.0,10.0,6.0,10,10.0,10.0,8.0,10.0,10.0,10.0,9.0,1910.0,104000,4,12855,8,52,20,8,11,8,52,30,10,6,2,52,32,16,28,72,57,23,7,5,5,2,1,2,82,16,0,57,14,16,5,8,73,27,67.0,23.0,10.0,92.0,5.0,2.0,False,1.0,0.0,1008.0,False,False,0.0,False,True,2.8810566443248837,539719.56,-9280.437500000466
62,"6803, 25e Avenue, apt. 6, Montréal (Rosemont/La Petite-Patrie), Neighbourhood New Rosemont",275000,45.566326000000004,-73.583963,8.0,9.0,5.0,7.0,5.0,3.0,8.0,10.0,6.0,8,5.0,10.0,10.0,10.0,6.0,8.0,6.0,2014.0,139590,4,8741,8,52,22,9,11,7,49,29,11,8,3,43,36,21,30,70,52,24,9,5,5,4,2,3,89,6,0,41,17,17,10,15,77,23,83.0,6.0,11.0,63.0,3.0,1.0,False,1.0,0.0,640.0,False,False,0.0,False,True,6.956151118776855,282232.6,7232.593749999825
63,"485, Rue Brault, Montréal (Verdun/Île-des-Soeurs), Neighbourhood Verdun",399000,45.447904,-73.57220500000001,6.0,6.0,4.0,9.0,7.0,5.0,8.0,10.0,5.0,10,5.0,8.0,8.0,9.0,6.0,7.0,7.0,1997.0,69229,5,7181,8,45,22,9,12,11,42,34,13,8,3,46,36,18,37,63,46,21,13,8,9,4,3,7,69,21,0,43,16,18,9,14,75,25,64.0,22.0,14.0,61.0,5.0,1.0,False,1.0,1.0,816.0,False,False,2.0,True,True,6.615272486503779,362026.25,-36973.74999999977
64,"2204, Rue Harmony, Montréal (Ville-Marie), Neighbourhood Central",779000,45.531296999999995,-73.558324,10.0,10.0,10.0,10.0,4.0,7.0,7.0,10.0,10.0,10,10.0,10.0,10.0,10.0,9.0,9.0,6.0,1900.0,87168,6,6414,10,58,18,7,8,9,55,31,9,4,2,57,26,17,27,73,33,28,11,8,13,8,1,2,48,49,0,52,15,18,6,9,63,37,54.0,26.0,20.0,84.0,10.0,4.0,False,1.0,0.0,1600.0,False,False,0.0,False,False,4.2949865026220655,663138.25,-115861.75000000012
65,"88, Rue Gary-Carter, apt. 116, Montréal (Villeray/Saint-Michel/Parc-Extension), Neighbourhood Villeray",362000,45.535616999999995,-73.621912,10.0,10.0,8.0,9.0,7.0,6.0,2.0,9.0,7.0,10,7.0,9.0,8.0,10.0,9.0,10.0,5.0,2017.0,143853,1,8692,11,58,23,8,8,3,40,29,14,11,7,33,42,25,28,72,49,33,6,4,4,3,3,2,91,4,0,29,14,20,11,26,56,44,57.0,10.0,33.0,83.0,4.0,1.0,False,1.0,0.0,398.0,False,False,0.0,False,True,3.920293987051527,335605.88,-26394.125
66,"2484, Rue Marie-Anne Est, apt. 4, Montréal (Le Plateau-Mont-Royal), Neighbourhood Le Plateau-Mont-Royal",369000,45.53798509,-73.56664034,10.0,10.0,9.0,9.0,5.0,6.0,5.0,10.0,7.0,10,8.0,10.0,8.0,10.0,9.0,9.0,5.0,2019.0,104000,4,12855,8,52,20,8,11,8,52,30,10,6,2,52,32,16,28,72,57,23,7,5,5,2,1,2,82,16,0,57,14,16,5,8,73,27,67.0,23.0,10.0,85.0,3.0,1.0,False,1.0,0.0,517.0,False,False,0.0,False,True,4.452537024588746,330359.0,-38641.00000000012
67,"299, Rue de la Rotonde, apt. 1109, Montréal (Verdun/Île-des-Soeurs), Neighbourhood Île-des-Soeurs",592000,45.47299,-73.538362,6.0,5.0,3.0,5.0,10.0,0.0,9.0,1.0,3.0,8,4.0,6.0,2.0,5.0,4.0,6.0,3.0,2014.0,69229,5,7181,8,45,22,9,12,11,42,34,13,8,3,46,36,18,37,63,46,21,13,8,9,4,3,7,69,21,0,43,16,18,9,14,75,25,64.0,22.0,14.0,35.0,5.0,2.0,False,2.0,0.0,851.0,True,True,2.0,True,True,5.831729194157256,595559.0,3559.0000000004657
68,"2000, boulevard René-Lévesque Ouest, apt. 1402, Montréal (Ville-Marie), Neighbourhood Central",819000,45.48944174,-73.57894449,10.0,10.0,10.0,4.0,6.0,7.0,0.0,10.0,10.0,10,9.0,9.0,8.0,9.0,10.0,10.0,7.0,2019.0,87168,6,6414,10,58,18,7,8,9,55,31,9,4,2,57,26,17,27,73,33,28,11,8,13,8,1,2,48,49,0,52,15,18,6,9,63,37,54.0,26.0,20.0,91.0,8.0,3.0,False,2.0,0.0,974.0,False,True,1.0,True,True,2.248312030058473,816230.6,-2769.375000000233
69,"1188, Rue Saint-Antoine Ouest, apt. 1105, Montréal (Ville-Marie), Neighbourhood Central",459000,45.49576785,-73.56758125,10.0,10.0,10.0,6.0,4.0,6.0,0.0,9.0,7.0,10,10.0,9.0,8.0,10.0,10.0,10.0,5.0,2019.0,87168,6,6414,10,58,18,7,8,9,55,31,9,4,2,57,26,17,27,73,33,28,11,8,13,8,1,2,48,49,0,52,15,18,6,9,63,37,54.0,26.0,20.0,94.0,4.0,1.0,False,1.0,0.0,530.0,False,True,0.0,False,True,2.571792208355787,469847.4,10847.406250000233
70,"4755, boulevard Métropolitain Est, apt. 608, Montréal (Saint-Léonard)",319900,45.577863,-73.594171,7.0,8.0,5.0,5.0,7.0,2.0,0.0,8.0,7.0,7,4.0,10.0,10.0,8.0,6.0,8.0,4.0,2014.0,78305,3,5813,11,48,27,9,10,5,30,29,16,15,9,30,49,21,35,65,14,64,8,5,6,2,6,3,83,8,0,22,16,23,14,26,51,49,44.0,22.0,34.0,64.0,5.0,2.0,False,1.0,0.0,883.0,False,False,1.0,True,True,8.157008331120577,343743.2,23843.18750000006
71,"2750, boulevard de la Côte-Vertu, apt. 804, Montréal (Saint-Laurent), Neighbourhood Saint-Laurent West",419000,45.501231,-73.69847800000001,6.0,8.0,3.0,5.0,8.0,0.0,9.0,5.0,7.0,6,2.0,8.0,4.0,7.0,5.0,7.0,4.0,1993.0,98828,5,2299,10,42,24,10,13,12,28,27,17,17,11,29,53,18,49,51,27,31,12,9,16,6,11,15,45,30,0,39,16,21,7,17,45,55,37.0,25.0,38.0,37.0,5.0,2.0,False,2.0,0.0,1192.0,False,True,1.0,True,True,7.831239137237143,463832.22,44832.21875000023
72,"542, Rue De La Noue, Montréal (Verdun/Île-des-Soeurs), Neighbourhood Île-des-Soeurs",465000,45.462004,-73.55051800000001,5.0,5.0,2.0,8.0,8.0,0.0,8.0,5.0,1.0,8,1.0,9.0,6.0,5.0,3.0,5.0,9.0,1988.0,69229,5,7181,8,45,22,9,12,11,42,34,13,8,3,46,36,18,37,63,46,21,13,8,9,4,3,7,69,21,0,43,16,18,9,14,75,25,64.0,22.0,14.0,35.0,6.0,2.0,False,1.0,0.0,1067.0,False,False,1.0,True,True,6.012625550494998,432564.7,-32435.312500000233
73,"1800, boulevard Angrignon, apt. 711, Montréal (LaSalle)",485000,45.44704177,-73.60887055,7.0,9.0,4.0,5.0,10.0,2.0,3.0,7.0,3.0,10,3.0,9.0,5.0,7.0,6.0,10.0,5.0,2013.0,76853,3,4675,10,48,25,10,11,6,36,30,15,12,6,34,43,23,40,60,25,50,10,7,4,3,4,8,85,4,0,25,17,26,12,20,63,37,42.0,36.0,22.0,46.0,9.0,3.0,False,2.0,0.0,967.0,False,True,1.0,True,True,6.450262705234463,485748.66,748.6562500003492
74,"109, Rue Charlotte, apt. 506, Montréal (Ville-Marie), Neighbourhood Central",499000,45.510464,-73.561933,10.0,10.0,10.0,8.0,4.0,7.0,6.0,5.0,7.0,10,10.0,10.0,9.0,10.0,10.0,10.0,3.0,2011.0,87168,6,6414,10,58,18,7,8,9,55,31,9,4,2,57,26,17,27,73,33,28,11,8,13,8,1,2,48,49,0,52,15,18,6,9,63,37,54.0,26.0,20.0,95.0,4.0,1.0,False,1.0,0.0,794.0,False,False,1.0,True,True,2.894220311529529,471429.56,-27570.437499999593
75,"7639, Avenue Léonard-De Vinci, apt. 6, Montréal (Villeray/Saint-Michel/Parc-Extension), Neighbourhood Saint-Michel",274000,45.56606420000001,-73.60014607,8.0,9.0,5.0,5.0,6.0,2.0,0.0,10.0,10.0,10,5.0,10.0,10.0,9.0,7.0,9.0,4.0,2011.0,143853,1,8692,11,58,23,8,8,3,40,29,14,11,7,33,42,25,28,72,49,33,6,4,4,3,3,2,91,4,0,29,14,20,11,26,56,44,57.0,10.0,33.0,71.0,6.0,2.0,False,1.0,0.0,693.0,False,False,1.0,False,True,6.841137817852291,267952.44,-6047.562499999942
76,"3719, Rue de Mentana, Montréal (Le Plateau-Mont-Royal), Neighbourhood Le Plateau-Mont-Royal",535000,45.521934,-73.568508,10.0,10.0,10.0,10.0,4.0,7.0,5.0,9.0,10.0,10,10.0,10.0,9.0,10.0,10.0,10.0,8.0,1900.0,104000,4,12855,8,52,20,8,11,8,52,30,10,6,2,52,32,16,28,72,57,23,7,5,5,2,1,2,82,16,0,57,14,16,5,8,73,27,67.0,23.0,10.0,93.0,7.0,3.0,False,1.0,0.0,1045.0,False,False,0.0,False,True,3.0085898768320583,546726.2,11726.187500000466
77,"5620, Rue De La Roche, apt. 105, Montréal (Rosemont/La Petite-Patrie), Neighbourhood La Petite-Patrie",539000,45.53504267,-73.59278575,10.0,10.0,9.0,10.0,3.0,6.0,3.0,10.0,9.0,10,9.0,10.0,10.0,10.0,9.0,9.0,6.0,2019.0,139590,4,8741,8,52,22,9,11,7,49,29,11,8,3,43,36,21,30,70,52,24,9,5,5,4,2,3,89,6,0,41,17,17,10,15,77,23,83.0,6.0,11.0,78.0,9.0,2.0,False,1.0,1.0,820.0,False,False,1.0,True,True,3.4150809308351686,548460.5,9460.499999999884
78,"1414, Rue Chomedey, apt. 247, Montréal (Ville-Marie), Neighbourhood Central West",460000,45.49053841,-73.5836932,10.0,10.0,10.0,4.0,4.0,7.0,3.0,10.0,10.0,10,10.0,10.0,9.0,10.0,10.0,10.0,4.0,2013.0,87168,6,6414,10,58,18,7,8,9,55,31,9,4,2,57,26,17,27,73,33,28,11,8,13,8,1,2,48,49,0,52,15,18,6,9,63,37,54.0,26.0,20.0,95.0,6.0,2.0,False,1.0,0.0,656.0,False,False,0.0,False,True,1.9213027308404127,450294.0,-9706.000000000116
79,"4983, Rue Duchesneau, Montréal (Mercier/Hochelaga-Maisonneuve), Neighbourhood Mercier",269000,45.611374,-73.530407,5.0,6.0,2.0,4.0,8.0,2.0,10.0,7.0,3.0,6,4.0,7.0,9.0,5.0,4.0,6.0,2.0,2011.0,136024,3,5347,9,52,24,9,11,5,45,32,12,8,4,42,35,23,34,66,43,31,10,5,7,4,5,5,86,4,0,29,17,21,14,20,79,21,85.0,5.0,10.0,46.0,7.0,2.0,False,1.0,0.0,963.0,False,False,0.0,False,True,12.994440916958457,272987.3,3987.3125
80,"5216, Rue Marquette, Montréal (Le Plateau-Mont-Royal), Neighbourhood Le Plateau-Mont-Royal",449000,45.535866999999996,-73.5837,10.0,10.0,9.0,10.0,4.0,6.0,5.0,8.0,6.0,9,9.0,10.0,8.0,10.0,9.0,9.0,8.0,1920.0,104000,4,12855,8,52,20,8,11,8,52,30,10,6,2,52,32,16,28,72,57,23,7,5,5,2,1,2,82,16,0,57,14,16,5,8,73,27,67.0,23.0,10.0,82.0,6.0,2.0,False,1.0,0.0,1084.0,False,False,0.0,False,False,3.657907570745017,503266.28,54266.28125000006
81,"61A, Avenue Strathyre, Montréal (LaSalle)",259000,45.427859000000005,-73.659182,5.0,4.0,3.0,7.0,9.0,3.0,9.0,8.0,8.0,9,2.0,5.0,10.0,5.0,6.0,7.0,7.0,2013.0,76853,3,4675,10,48,25,10,11,6,36,30,15,12,6,34,43,23,40,60,25,50,10,7,4,3,4,8,85,4,0,25,17,26,12,20,63,37,42.0,36.0,22.0,16.0,6.0,2.0,True,1.0,0.0,829.0,False,False,0.0,False,True,9.768390210624077,292905.94,33905.9375
82,"454, Rue De La Gauchetière Ouest, apt. 103C, Montréal (Ville-Marie), Neighbourhood Central West",848000,45.5031,-73.563381,10.0,10.0,10.0,5.0,5.0,7.0,7.0,8.0,6.0,10,10.0,9.0,10.0,10.0,10.0,10.0,3.0,1905.0,87168,6,6414,10,58,18,7,8,9,55,31,9,4,2,57,26,17,27,73,33,28,11,8,13,8,1,2,48,49,0,52,15,18,6,9,63,37,54.0,26.0,20.0,95.0,5.0,1.0,False,1.0,0.0,1207.0,False,False,1.0,True,True,2.7108871244643855,685262.1,-162737.87499999953
83,"2365, Rue Saint-Patrick, apt. A101, Montréal (Le Sud-Ouest), Neighbourhood Pointe-Saint-Charles",990000,45.482040999999995,-73.569347,10.0,10.0,7.0,10.0,7.0,6.0,5.0,7.0,5.0,10,7.0,9.0,5.0,10.0,8.0,9.0,5.0,2015.0,80153,9,5070,8,50,22,9,11,7,46,32,11,7,4,44,32,24,35,65,43,18,11,5,10,13,2,7,71,20,0,38,16,19,9,18,74,26,59.0,26.0,15.0,78.0,5.0,2.0,False,2.0,0.0,1256.0,False,True,1.0,True,True,3.3604666769746085,1002718.0,12718.000000000815
84,"3419, Avenue Henri-Julien, apt. 402, Montréal (Le Plateau-Mont-Royal), Neighbourhood Le Plateau-Mont-Royal",1299000,45.516279,-73.56810300000001,10.0,10.0,10.0,10.0,6.0,7.0,0.0,9.0,9.0,10,10.0,10.0,8.0,10.0,10.0,10.0,4.0,2005.0,104000,4,12855,8,52,20,8,11,8,52,30,10,6,2,52,32,16,28,72,57,23,7,5,5,2,1,2,82,16,0,57,14,16,5,8,73,27,67.0,23.0,10.0,95.0,7.0,2.0,False,2.0,0.0,1628.0,False,True,2.0,True,True,2.6765834603733216,1225694.6,-73305.37499999907
85,"8635, Rue Lajeunesse, apt. 306, Montréal (Villeray/Saint-Michel/Parc-Extension), Neighbourhood Villeray",349000,45.54611648,-73.63622815,9.0,10.0,7.0,7.0,5.0,5.0,0.0,10.0,9.0,9,5.0,10.0,8.0,10.0,7.0,10.0,5.0,2012.0,143853,1,8692,11,58,23,8,8,3,40,29,14,11,7,33,42,25,28,72,49,33,6,4,4,3,3,2,91,4,0,29,14,20,11,26,56,44,57.0,10.0,33.0,75.0,5.0,1.0,False,1.0,0.0,595.0,False,True,1.0,True,True,5.4932881216670895,315595.56,-33404.43749999994
86,"1321, Rue Sherbrooke Ouest, apt. A 90, Montréal (Ville-Marie), Neighbourhood Golden Square Mile",1750000,45.49953808,-73.57920917,10.0,10.0,10.0,6.0,6.0,7.0,1.0,7.0,9.0,8,10.0,10.0,9.0,10.0,10.0,10.0,4.0,1927.0,87168,6,6414,10,58,18,7,8,9,55,31,9,4,2,57,26,17,27,73,33,28,11,8,13,8,1,2,48,49,0,52,15,18,6,9,63,37,54.0,26.0,20.0,96.0,7.0,3.0,False,2.0,2.0,2283.0,False,False,1.0,True,False,1.5747679693197376,1962448.8,212448.75
87,"5777, 16e Avenue, Montréal (Rosemont/La Petite-Patrie), Neighbourhood Old Rosemont",429000,45.556588,-73.577292,9.0,9.0,7.0,8.0,5.0,4.0,4.0,10.0,10.0,8,6.0,10.0,9.0,10.0,6.0,8.0,8.0,1948.0,139590,4,8741,8,52,22,9,11,7,49,29,11,8,3,43,36,21,30,70,52,24,9,5,5,4,2,3,89,6,0,41,17,17,10,15,77,23,83.0,6.0,11.0,71.0,9.0,3.0,False,1.0,0.0,1250.0,False,False,0.0,False,False,6.008420539528602,431011.03,2011.0312499998836
88,"11900, Rue Dulongpré, apt. 303, Montréal (Ahuntsic-Cartierville), Neighbourhood Cartierville",289000,45.52586693,-73.71180547,6.0,6.0,3.0,4.0,7.0,2.0,4.0,8.0,6.0,7,4.0,9.0,8.0,8.0,6.0,9.0,5.0,2011.0,134245,6,5545,10,49,23,9,11,9,41,27,13,12,7,34,46,20,39,61,37,33,14,6,6,4,9,5,73,13,0,36,16,20,10,17,59,41,65.0,10.0,25.0,52.0,5.0,2.0,False,1.0,0.0,745.0,False,False,0.0,False,True,9.170635651718056,279428.0,-9571.999999999884
89,"1070, Rue Berri, apt. 25, Montréal (Ville-Marie), Neighbourhood Central",449900,45.51301282,-73.55700458,10.0,10.0,10.0,9.0,4.0,7.0,3.0,4.0,5.0,10,10.0,10.0,9.0,10.0,10.0,10.0,5.0,1987.0,87168,6,6414,10,58,18,7,8,9,55,31,9,4,2,57,26,17,27,73,33,28,11,8,13,8,1,2,48,49,0,52,15,18,6,9,63,37,54.0,26.0,20.0,91.0,7.0,1.0,False,1.0,0.0,611.0,False,False,0.0,False,True,3.337854457604408,331006.12,-118893.87500000035
90,"1248, Avenue de l'Hôtel-de-Ville, apt. 628, Montréal (Ville-Marie), Neighbourhood Central",509000,45.511117999999996,-73.56156,10.0,10.0,10.0,9.0,4.0,7.0,7.0,5.0,6.0,10,10.0,10.0,10.0,10.0,10.0,10.0,4.0,2013.0,87168,6,6414,10,58,18,7,8,9,55,31,9,4,2,57,26,17,27,73,33,28,11,8,13,8,1,2,48,49,0,52,15,18,6,9,63,37,54.0,26.0,20.0,94.0,6.0,2.0,False,1.0,0.0,662.0,False,False,1.0,True,True,2.9397181626829743,473863.62,-35136.375000000175
91,"90, Rue des Soeurs-Grises, apt. 301, Montréal (Ville-Marie), Neighbourhood La Cité du Multimédia",598000,45.498789,-73.554597,10.0,10.0,10.0,9.0,5.0,9.0,4.0,8.0,3.0,10,10.0,10.0,8.0,10.0,10.0,9.0,4.0,2003.0,87168,6,6414,10,58,18,7,8,9,55,31,9,4,2,57,26,17,27,73,33,28,11,8,13,8,1,2,48,49,0,52,15,18,6,9,63,37,54.0,26.0,20.0,89.0,6.0,2.0,False,2.0,0.0,1079.0,False,False,1.0,True,True,3.450854582793681,633658.0,35658.00000000023
92,"1866, Avenue De La Salle, apt. 6, Montréal (Mercier/Hochelaga-Maisonneuve), Neighbourhood Hochelaga-Maisonneuve",324900,45.551438,-73.539608,8.0,7.0,5.0,10.0,5.0,6.0,9.0,10.0,10.0,8,5.0,10.0,10.0,10.0,6.0,8.0,6.0,2004.0,136024,3,5347,9,52,24,9,11,5,45,32,12,8,4,42,35,23,34,66,43,31,10,5,7,4,5,5,86,4,0,29,17,21,14,20,79,21,85.0,5.0,10.0,83.0,5.0,2.0,False,1.0,0.0,859.0,False,False,0.0,False,True,6.923782065036451,316138.4,-8761.593749999767
93,"2145, Rue Saint-Clément, apt. 310, Montréal (Mercier/Hochelaga-Maisonneuve), Neighbourhood Hochelaga-Maisonneuve",315000,45.519040999999994,-73.683533,7.0,8.0,4.0,7.0,6.0,3.0,7.0,9.0,9.0,8,3.0,10.0,10.0,8.0,5.0,9.0,7.0,2014.0,136024,3,5347,9,52,24,9,11,5,45,32,12,8,4,42,35,23,34,66,43,31,10,5,7,4,5,5,86,4,0,29,17,21,14,20,79,21,85.0,5.0,10.0,68.0,5.0,2.0,False,1.0,0.0,688.0,False,False,0.0,False,True,6.848790941870277,325837.66,10837.656249999825
94,"199, Rue de la Rotonde, apt. PH2-06, Montréal (Verdun/Île-des-Soeurs), Neighbourhood Île-des-Soeurs",1274000,45.473757,-73.538306,6.0,6.0,3.0,6.0,10.0,0.0,8.0,1.0,3.0,8,4.0,7.0,4.0,6.0,4.0,7.0,2.0,2012.0,69229,5,7181,8,45,22,9,12,11,42,34,13,8,3,46,36,18,37,63,46,21,13,8,9,4,3,7,69,21,0,43,16,18,9,14,75,25,64.0,22.0,14.0,29.0,10.0,3.0,False,2.0,0.0,1462.0,False,True,2.0,True,True,5.7842886769287105,966027.5,-307972.4999999993
95,"1220, Rue Crescent, apt. 809, Montréal (Ville-Marie), Neighbourhood Golden Square Mile",479000,45.496505,-73.574928,10.0,10.0,10.0,4.0,5.0,7.0,0.0,6.0,9.0,10,10.0,10.0,8.0,10.0,10.0,10.0,3.0,2015.0,87168,6,6414,10,58,18,7,8,9,55,31,9,4,2,57,26,17,27,73,33,28,11,8,13,8,1,2,48,49,0,52,15,18,6,9,63,37,54.0,26.0,20.0,98.0,6.0,2.0,False,1.0,0.0,720.0,False,False,0.0,False,True,2.015992330928631,501930.9,22930.90624999965
96,"1200, Rue Saint-Jacques, apt. 1303, Montréal (Ville-Marie), Neighbourhood Central",376000,45.49496582,-73.56622866,10.0,10.0,10.0,7.0,6.0,6.0,4.0,9.0,7.0,10,10.0,10.0,8.0,10.0,10.0,10.0,4.0,2007.0,87168,6,6414,10,58,18,7,8,9,55,31,9,4,2,57,26,17,27,73,33,28,11,8,13,8,1,2,48,49,0,52,15,18,6,9,63,37,54.0,26.0,20.0,91.0,4.0,1.0,False,1.0,0.0,596.0,False,True,0.0,False,True,2.703540530402951,360153.25,-15846.750000000291
97,"3655, Rue Des Lacquiers, apt. 205, Montréal (Le Sud-Ouest), Neighbourhood Saint-Henri/Petite Bourgogne",449000,45.47761145,-73.57728427,10.0,10.0,7.0,10.0,5.0,6.0,3.0,9.0,7.0,10,7.0,10.0,6.0,10.0,8.0,9.0,5.0,1999.0,80153,9,5070,8,50,22,9,11,7,46,32,11,7,4,44,32,24,35,65,43,18,11,5,10,13,2,7,71,20,0,38,16,19,9,18,74,26,59.0,26.0,15.0,80.0,5.0,2.0,False,1.0,0.0,847.0,False,False,1.0,True,True,3.407499896483372,468346.06,19346.06250000006
98,"6879, Avenue Irwin, apt. 1, Montréal (Le Sud-Ouest), Neighbourhood Saint-Paul/Émard",259000,45.44814245,-73.60463558,7.0,8.0,4.0,5.0,7.0,3.0,7.0,8.0,3.0,10,3.0,8.0,4.0,8.0,5.0,10.0,6.0,1984.0,80153,9,5070,8,50,22,9,11,7,46,32,11,7,4,44,32,24,35,65,43,18,11,5,10,13,2,7,71,20,0,38,16,19,9,18,74,26,59.0,26.0,15.0,53.0,4.0,1.0,False,1.0,0.0,880.0,False,False,0.0,False,True,6.293650084461067,301694.7,42694.6875
99,"8185, Rue George, apt. 102, Montréal (LaSalle)",479000,45.42420634,-73.61005279999999,5.0,6.0,3.0,8.0,6.0,0.0,9.0,9.0,6.0,9,4.0,8.0,9.0,6.0,5.0,7.0,5.0,2005.0,76853,3,4675,10,48,25,10,11,6,36,30,15,12,6,34,43,23,40,60,25,50,10,7,4,3,4,8,85,4,0,25,17,26,12,20,63,37,42.0,36.0,22.0,57.0,7.0,3.0,False,2.0,0.0,1384.0,False,False,2.0,True,True,8.983048744548187,494304.25,15304.24999999965
100,"455, Rue Saint-Louis, apt. 504, Montréal (Ville-Marie), Neighbourhood Old Montréal",739900,45.5114096,-73.55347234,10.0,10.0,10.0,8.0,4.0,7.0,5.0,3.0,3.0,10,10.0,10.0,9.0,10.0,10.0,10.0,5.0,2012.0,87168,6,6414,10,58,18,7,8,9,55,31,9,4,2,57,26,17,27,73,33,28,11,8,13,8,1,2,48,49,0,52,15,18,6,9,63,37,54.0,26.0,20.0,86.0,5.0,2.0,False,2.0,1.0,1088.0,False,False,1.0,True,True,3.560479361359442,642469.06,-97430.93749999965
101,"490, Rue Sherbrooke, apt. 5, Montréal (Lachine), Neighbourhood East",274900,45.44509256,-73.668307,5.0,4.0,3.0,2.0,9.0,3.0,3.0,9.0,5.0,7,4.0,6.0,6.0,5.0,5.0,5.0,5.0,2005.0,44489,7,2498,9,48,22,10,12,9,40,29,14,11,5,35,41,24,43,57,44,27,9,7,7,6,15,10,70,6,0,27,16,23,13,21,77,23,59.0,30.0,11.0,29.0,7.0,2.0,False,1.0,0.0,996.0,False,False,0.0,False,True,8.583936952520911,310933.0,36032.99999999994
102,"6831, Rue Sherbrooke Ouest, apt. 402, Montréal (Côte-des-Neiges/Notre-Dame-de-Grâce), Neighbourhood Notre-Dame-de-Grâce",599000,45.46153501,-73.63389856,7.0,8.0,4.0,6.0,9.0,4.0,2.0,9.0,9.0,9,4.0,9.0,8.0,9.0,6.0,9.0,9.0,1987.0,166011,1,7718,11,54,21,8,9,9,40,29,15,11,6,33,45,22,27,73,51,30,8,5,4,3,3,6,69,22,0,47,16,19,6,12,50,50,33.0,39.0,28.0,63.0,5.0,2.0,False,2.0,0.0,1229.0,False,False,1.0,True,True,5.538261291155648,492371.5,-106628.5
103,"2, Place des Jardins-des-Vosges, apt. 114, Montréal (Verdun/Île-des-Soeurs), Neighbourhood Île-des-Soeurs",465000,45.45042022,-73.54912527,3.0,3.0,1.0,7.0,9.0,0.0,9.0,8.0,0.0,9,0.0,2.0,5.0,3.0,1.0,5.0,6.0,2004.0,69229,5,7181,8,45,22,9,12,11,42,34,13,8,3,46,36,18,37,63,46,21,13,8,9,4,3,7,69,21,0,43,16,18,9,14,75,25,64.0,22.0,14.0,15.0,6.0,2.0,False,2.0,0.0,961.0,False,False,1.0,True,True,7.128850194217295,511251.06,46251.06249999977
104,"18, Rue de la Poudrière, apt. 102, Montréal (Verdun/Île-des-Soeurs), Neighbourhood Verdun",399000,45.471866999999996,-73.567614,9.0,9.0,5.0,5.0,7.0,4.0,7.0,9.0,6.0,8,5.0,9.0,6.0,9.0,6.0,9.0,7.0,1984.0,69229,5,7181,8,45,22,9,12,11,42,34,13,8,3,46,36,18,37,63,46,21,13,8,9,4,3,7,69,21,0,43,16,18,9,14,75,25,64.0,22.0,14.0,68.0,5.0,2.0,False,1.0,0.0,939.0,False,False,1.0,True,True,4.343062457283646,392404.0,-6595.999999999767
105,"10050, Place de l'Acadie, apt. 542, Montréal (Ahuntsic-Cartierville), Neighbourhood Nouveau Bordeaux",344900,45.53295988,-73.68050744,6.0,8.0,4.0,3.0,7.0,0.0,2.0,9.0,7.0,10,2.0,9.0,10.0,8.0,6.0,9.0,3.0,2017.0,134245,6,5545,10,49,23,9,11,9,41,27,13,12,7,34,46,20,39,61,37,33,14,6,6,4,9,5,73,13,0,36,16,20,10,17,59,41,65.0,10.0,25.0,41.0,5.0,2.0,False,1.0,0.0,795.0,False,False,1.0,True,True,7.154950663126187,372252.25,27352.249999999825
106,"1885, Rue de la Visitation, apt. 206, Montréal (Ville-Marie), Neighbourhood Central",589000,45.521639,-73.560951,10.0,10.0,10.0,10.0,4.0,7.0,8.0,10.0,7.0,10,10.0,10.0,6.0,10.0,10.0,10.0,6.0,2015.0,87168,6,6414,10,58,18,7,8,9,55,31,9,4,2,57,26,17,27,73,33,28,11,8,13,8,1,2,48,49,0,52,15,18,6,9,63,37,54.0,26.0,20.0,91.0,6.0,3.0,False,2.0,0.0,1157.0,False,False,1.0,False,True,3.46244418194498,666345.44,77345.4375
107,"6026, Avenue De Lorimier, Montréal (Rosemont/La Petite-Patrie), Neighbourhood La Petite-Patrie",379000,45.543686,-73.59111700000001,10.0,10.0,9.0,10.0,5.0,5.0,2.0,10.0,9.0,9,10.0,10.0,9.0,10.0,9.0,9.0,5.0,2003.0,139590,4,8741,8,52,22,9,11,7,49,29,11,8,3,43,36,21,30,70,52,24,9,5,5,4,2,3,89,6,0,41,17,17,10,15,77,23,83.0,6.0,11.0,83.0,7.0,3.0,False,1.0,0.0,866.0,False,False,1.0,False,True,4.384861892345949,386223.8,7223.812499999825
108,"7980, Rue Malouin, apt. 108, Montréal (Saint-Léonard)",239000,45.588725,-73.586611,7.0,8.0,4.0,4.0,8.0,0.0,7.0,8.0,3.0,8,3.0,10.0,10.0,8.0,5.0,7.0,5.0,2003.0,78305,3,5813,11,48,27,9,10,5,30,29,16,15,9,30,49,21,35,65,14,64,8,5,6,2,6,3,83,8,0,22,16,23,14,26,51,49,44.0,22.0,34.0,59.0,7.0,2.0,False,1.0,0.0,925.0,False,False,1.0,False,True,9.401750710681153,283360.47,44360.46874999997
109,"1070, Rue De Bleury, apt. 508-509, Montréal (Ville-Marie), Neighbourhood Central",998000,45.50453536,-73.56329341,10.0,10.0,10.0,6.0,6.0,7.0,4.0,7.0,5.0,8,10.0,9.0,10.0,10.0,10.0,10.0,3.0,2012.0,87168,6,6414,10,58,18,7,8,9,55,31,9,4,2,57,26,17,27,73,33,28,11,8,13,8,1,2,48,49,0,52,15,18,6,9,63,37,54.0,26.0,20.0,95.0,7.0,2.0,False,2.0,0.0,1419.0,False,False,1.0,True,True,2.712834223581651,1077991.1,79991.12499999919
110,"3984, Rue Arthur-Champoux, Montréal (Montréal-Nord)",240000,45.592506,-73.641481,6.0,6.0,4.0,5.0,7.0,2.0,8.0,10.0,8.0,9,4.0,9.0,10.0,9.0,5.0,8.0,7.0,1965.0,84234,0,7637,12,59,24,7,7,2,37,28,15,12,9,28,42,30,28,72,28,52,11,4,3,2,8,5,77,10,0,15,13,23,18,31,58,42,67.0,8.0,25.0,61.0,5.0,3.0,False,1.0,0.0,1041.0,False,False,0.0,False,True,10.346384988952597,246040.55,6040.546874999971
111,"2000, Rue Drummond, apt. 1905, Montréal (Ville-Marie), Neighbourhood Golden Square Mile",730000,45.499472999999995,-73.57661999999999,10.0,10.0,10.0,7.0,4.0,7.0,0.0,7.0,8.0,8,10.0,9.0,10.0,10.0,10.0,10.0,4.0,2006.0,87168,6,6414,10,58,18,7,8,9,55,31,9,4,2,57,26,17,27,73,33,28,11,8,13,8,1,2,48,49,0,52,15,18,6,9,63,37,54.0,26.0,20.0,97.0,5.0,2.0,False,2.0,0.0,1023.0,False,False,1.0,True,True,1.7672098345110112,728807.6,-1192.3749999997672
112,"1185, boulevard De Maisonneuve Est, apt. 3D, Montréal (Ville-Marie), Neighbourhood Village",329000,45.51896521,-73.55799353,10.0,10.0,10.0,10.0,5.0,7.0,5.0,8.0,6.0,10,10.0,10.0,6.0,10.0,10.0,10.0,3.0,2009.0,87168,6,6414,10,58,18,7,8,9,55,31,9,4,2,57,26,17,27,73,33,28,11,8,13,8,1,2,48,49,0,52,15,18,6,9,63,37,54.0,26.0,20.0,93.0,4.0,1.0,False,1.0,0.0,658.0,False,False,0.0,True,True,3.5121618350502186,402622.4,73622.40624999977
113,"6980, Chemin de la Côte-Saint-Luc, apt. 812, Montréal (Côte-des-Neiges/Notre-Dame-de-Grâce), Neighbourhood Notre-Dame-de-Grâce",399000,45.46621547,-73.65253467,6.0,7.0,4.0,6.0,6.0,0.0,3.0,9.0,9.0,9,3.0,9.0,6.0,10.0,6.0,8.0,9.0,1986.0,166011,1,7718,11,54,21,8,9,9,40,29,15,11,6,33,45,22,27,73,51,30,8,5,4,3,3,6,69,22,0,47,16,19,6,12,50,50,33.0,39.0,28.0,61.0,5.0,3.0,False,2.0,0.0,1533.0,False,True,2.0,True,True,6.015146066640972,526453.75,127453.75000000023
114,"3946, Rue Cool, Montréal (Verdun/Île-des-Soeurs), Neighbourhood Verdun",224900,45.464702,-73.577484,8.0,8.0,5.0,9.0,7.0,5.0,8.0,8.0,5.0,10,4.0,10.0,6.0,10.0,6.0,8.0,6.0,1915.0,69229,5,7181,8,45,22,9,12,11,42,34,13,8,3,46,36,18,37,63,46,21,13,8,9,4,3,7,69,21,0,43,16,18,9,14,75,25,64.0,22.0,14.0,63.0,4.0,1.0,False,1.0,0.0,565.0,False,False,1.0,False,True,4.7142150918731165,248644.94,23744.937499999884
115,"6783, Rue Drolet, Montréal (Rosemont/La Petite-Patrie), Neighbourhood Little Italy",849000,45.535615,-73.610485,10.0,10.0,9.0,10.0,3.0,6.0,7.0,10.0,7.0,9,8.0,10.0,10.0,10.0,10.0,9.0,7.0,1910.0,139590,4,8741,8,52,22,9,11,7,49,29,11,8,3,43,36,21,30,70,52,24,9,5,5,4,2,3,89,6,0,41,17,17,10,15,77,23,83.0,6.0,11.0,93.0,9.0,3.0,False,2.0,1.0,1449.0,False,False,0.0,False,False,3.585674465029438,761344.0,-87656.0
116,"4550, 2e Avenue, apt. 404, Montréal (Rosemont/La Petite-Patrie), Neighbourhood Shop Angus",499700,45.544771999999995,-73.57174300000001,10.0,9.0,8.0,10.0,5.0,5.0,3.0,9.0,4.0,10,8.0,10.0,10.0,10.0,8.0,8.0,7.0,2015.0,139590,4,8741,8,52,22,9,11,7,49,29,11,8,3,43,36,21,30,70,52,24,9,5,5,4,2,3,89,6,0,41,17,17,10,15,77,23,83.0,6.0,11.0,80.0,6.0,3.0,False,2.0,0.0,1053.0,False,False,1.0,True,True,4.920717086185783,568901.25,69201.25000000035
117,"4416, Avenue De Lorimier, Montréal (Le Plateau-Mont-Royal), Neighbourhood Le Plateau-Mont-Royal",479000,45.534347,-73.571308,10.0,10.0,10.0,10.0,5.0,7.0,5.0,10.0,10.0,10,10.0,10.0,9.0,10.0,9.0,9.0,8.0,1905.0,104000,4,12855,8,52,20,8,11,8,52,30,10,6,2,52,32,16,28,72,57,23,7,5,5,2,1,2,82,16,0,57,14,16,5,8,73,27,67.0,23.0,10.0,93.0,7.0,3.0,False,1.0,0.0,1085.0,False,False,0.0,True,True,3.915494531573838,539004.06,60004.06249999965
118,"5700, Rue Garnier, apt. 403, Montréal (Rosemont/La Petite-Patrie), Neighbourhood La Petite-Patrie",549800,45.53732559,-73.59066082,10.0,10.0,9.0,10.0,4.0,5.0,3.0,9.0,9.0,10,9.0,9.0,8.0,10.0,9.0,9.0,5.0,2016.0,139590,4,8741,8,52,22,9,11,7,49,29,11,8,3,43,36,21,30,70,52,24,9,5,5,4,2,3,89,6,0,41,17,17,10,15,77,23,83.0,6.0,11.0,71.0,4.0,2.0,False,1.0,1.0,837.0,False,False,1.0,True,True,3.6895563568266376,546052.94,-3747.062500000233
119,"5620, Rue De La Roche, apt. 201, Montréal (Rosemont/La Petite-Patrie), Neighbourhood La Petite-Patrie",449000,45.53459176,-73.59257117,10.0,10.0,9.0,10.0,4.0,5.0,0.0,9.0,9.0,10,10.0,9.0,8.0,9.0,9.0,9.0,4.0,2019.0,139590,4,8741,8,52,22,9,11,7,49,29,11,8,3,43,36,21,30,70,52,24,9,5,5,4,2,3,89,6,0,41,17,17,10,15,77,23,83.0,6.0,11.0,79.0,8.0,2.0,False,1.0,0.0,814.0,False,False,0.0,False,True,3.3674173728966124,472550.38,23550.37500000006
120,"680, Rue De Courcelle, apt. 705, Montréal (Le Sud-Ouest), Neighbourhood Saint-Henri/Petite Bourgogne",575000,45.47468936,-73.59381956,10.0,10.0,7.0,4.0,7.0,6.0,4.0,10.0,9.0,9,6.0,10.0,8.0,10.0,8.0,9.0,4.0,2011.0,80153,9,5070,8,50,22,9,11,7,46,32,11,7,4,44,32,24,35,65,43,18,11,5,10,13,2,7,71,20,0,38,16,19,9,18,74,26,59.0,26.0,15.0,78.0,5.0,3.0,False,1.0,0.0,1014.0,False,False,1.0,True,True,3.3378807006946687,555138.4,-19861.625000000116
121,"210, Chemin du Golf, apt. 204, Montréal (Verdun/Île-des-Soeurs), Neighbourhood Île-des-Soeurs",309000,45.46905761,-73.54745578,6.0,7.0,3.0,9.0,9.0,0.0,0.0,3.0,5.0,9,3.0,9.0,10.0,6.0,6.0,7.0,6.0,2004.0,69229,5,7181,8,45,22,9,12,11,42,34,13,8,3,46,36,18,37,63,46,21,13,8,9,4,3,7,69,21,0,43,16,18,9,14,75,25,64.0,22.0,14.0,52.0,4.0,1.0,False,1.0,0.0,709.0,False,True,1.0,True,True,5.583085338711046,344916.8,35916.81249999994
122,"1963, Rue Honoré-Beaugrand, Montréal (Mercier/Hochelaga-Maisonneuve), Neighbourhood Mercier",289500,45.590669,-73.515359,5.0,6.0,3.0,4.0,9.0,4.0,8.0,10.0,4.0,7,2.0,7.0,6.0,6.0,2.0,6.0,8.0,2004.0,136024,3,5347,9,52,24,9,11,5,45,32,12,8,4,42,35,23,34,66,43,31,10,5,7,4,5,5,86,4,0,29,17,21,14,20,79,21,85.0,5.0,10.0,43.0,6.0,3.0,False,1.0,0.0,1050.0,False,False,0.0,False,True,11.54137264921892,299913.25,10413.249999999767
123,"4355, boulevard Saint-Michel, apt. 102, Montréal (Rosemont/La Petite-Patrie), Neighbourhood Shop Angus",369700,45.548357,-73.563131,9.0,9.0,7.0,8.0,7.0,4.0,6.0,9.0,5.0,10,7.0,9.0,9.0,10.0,7.0,9.0,5.0,1989.0,139590,4,8741,8,52,22,9,11,7,49,29,11,8,3,43,36,21,30,70,52,24,9,5,5,4,2,3,89,6,0,41,17,17,10,15,77,23,83.0,6.0,11.0,70.0,5.0,2.0,False,1.0,0.0,892.0,False,False,1.0,False,True,5.580564662446927,344916.5,-24783.499999999825
124,"1850, Rue des Carrières, apt. 101, Montréal (Rosemont/La Petite-Patrie), Neighbourhood La Petite-Patrie",229000,45.539835,-73.587623,10.0,10.0,9.0,10.0,4.0,5.0,3.0,9.0,8.0,9,8.0,10.0,8.0,10.0,8.0,9.0,6.0,2008.0,139590,4,8741,8,52,22,9,11,7,49,29,11,8,3,43,36,21,30,70,52,24,9,5,5,4,2,3,89,6,0,41,17,17,10,15,77,23,83.0,6.0,11.0,72.0,4.0,1.0,False,1.0,0.0,644.0,False,False,0.0,False,True,4.006817531118831,288123.75,59123.74999999994
125,"5265, Rue Saint-Hubert, apt. 3, Montréal (Le Plateau-Mont-Royal), Neighbourhood Le Plateau-Mont-Royal",399000,45.530068,-73.589791,10.0,10.0,10.0,10.0,2.0,6.0,7.0,10.0,8.0,10,10.0,10.0,6.0,10.0,10.0,9.0,5.0,1985.0,104000,4,12855,8,52,20,8,11,8,52,30,10,6,2,52,32,16,28,72,57,23,7,5,5,2,1,2,82,16,0,57,14,16,5,8,73,27,67.0,23.0,10.0,89.0,5.0,2.0,False,1.0,0.0,797.0,False,False,1.0,True,True,2.9096977821473957,424193.25,25193.250000000233
126,"854, Avenue Davaar, Montréal (Outremont)",599000,45.517933,-73.61838399999999,10.0,10.0,7.0,7.0,5.0,5.0,5.0,10.0,10.0,10,6.0,9.0,10.0,10.0,8.0,9.0,8.0,1922.0,23954,2,6254,6,29,19,9,15,27,33,30,14,13,10,34,50,16,54,46,73,16,4,4,2,1,8,14,59,19,0,59,14,15,3,10,74,26,61.0,19.0,20.0,67.0,7.0,3.0,False,1.0,0.0,1235.0,False,False,1.0,False,True,2.1701163976590307,592128.75,-6871.25
127,"8762, Rue De Teck, Montréal (Mercier/Hochelaga-Maisonneuve), Neighbourhood Mercier",315000,45.604417,-73.527537,6.0,6.0,4.0,5.0,6.0,3.0,9.0,10.0,9.0,8,4.0,9.0,9.0,7.0,5.0,8.0,7.0,1955.0,136024,3,5347,9,52,24,9,11,5,45,32,12,8,4,42,35,23,34,66,43,31,10,5,7,4,5,5,86,4,0,29,17,21,14,20,79,21,85.0,5.0,10.0,59.0,7.0,3.0,False,2.0,0.0,899.0,False,False,0.0,False,True,12.388970752548019,313081.06,-1918.9375000001746
128,"3100, Rue Rachel Est, apt. 415, Montréal (Rosemont/La Petite-Patrie), Neighbourhood Shop Angus",489800,45.54302737,-73.56123456,9.0,9.0,7.0,7.0,6.0,4.0,8.0,8.0,7.0,10,7.0,10.0,9.0,10.0,7.0,9.0,6.0,2014.0,139590,4,8741,8,52,22,9,11,7,49,29,11,8,3,43,36,21,30,70,52,24,9,5,5,4,2,3,89,6,0,41,17,17,10,15,77,23,83.0,6.0,11.0,73.0,4.0,2.0,False,1.0,0.0,748.0,False,True,1.0,True,True,5.1525630056645815,429281.94,-60518.06249999965
129,"1080, Rue Saint-Mathieu, apt. 304, Montréal (Ville-Marie), Neighbourhood Central West",548000,45.491948,-73.576368,10.0,10.0,10.0,4.0,4.0,7.0,0.0,9.0,10.0,10,10.0,10.0,10.0,10.0,10.0,10.0,6.0,1988.0,87168,6,6414,10,58,18,7,8,9,55,31,9,4,2,57,26,17,27,73,33,28,11,8,13,8,1,2,48,49,0,52,15,18,6,9,63,37,54.0,26.0,20.0,94.0,8.0,2.0,False,2.0,0.0,1193.0,False,False,1.0,True,True,2.199033681004668,657067.2,109067.1875
130,"765, Rue Bourget, apt. 126, Montréal (Le Sud-Ouest), Neighbourhood Saint-Henri/Petite Bourgogne",349000,45.48159835,-73.58517647,10.0,10.0,8.0,7.0,5.0,6.0,5.0,9.0,9.0,10,7.0,10.0,9.0,10.0,9.0,10.0,6.0,2008.0,80153,9,5070,8,50,22,9,11,7,46,32,11,7,4,44,32,24,35,65,43,18,11,5,10,13,2,7,71,20,0,38,16,19,9,18,74,26,59.0,26.0,15.0,80.0,5.0,1.0,False,1.0,0.0,465.0,False,True,1.0,True,True,2.7445601516834457,344027.84,-4972.156249999942
131,"9945, Rue Lajeunesse, apt. 210, Montréal (Ahuntsic-Cartierville), Neighbourhood Ahuntsic West",259900,45.55236153,-73.65765818,8.0,9.0,5.0,6.0,8.0,3.0,5.0,9.0,9.0,9,4.0,9.0,10.0,10.0,6.0,10.0,7.0,2013.0,134245,6,5545,10,49,23,9,11,9,41,27,13,12,7,34,46,20,39,61,37,33,14,6,6,4,9,5,73,13,0,36,16,20,10,17,59,41,65.0,10.0,25.0,68.0,6.0,2.0,False,1.0,0.0,692.0,False,False,0.0,False,True,7.055326553919826,303880.62,43980.62499999988
132,"6635, Rue Saint-André, apt. 100, Montréal (Rosemont/La Petite-Patrie), Neighbourhood La Petite-Patrie",340000,45.53749577,-73.60473590000001,10.0,10.0,10.0,10.0,4.0,6.0,6.0,9.0,10.0,9,10.0,10.0,8.0,10.0,9.0,9.0,4.0,2015.0,139590,4,8741,8,52,22,9,11,7,49,29,11,8,3,43,36,21,30,70,52,24,9,5,5,4,2,3,89,6,0,41,17,17,10,15,77,23,83.0,6.0,11.0,92.0,3.0,1.0,False,1.0,0.0,473.0,False,False,0.0,False,True,3.6988882971111714,316281.62,-23718.374999999884
133,"524, Avenue Lebrun, Montréal (Mercier/Hochelaga-Maisonneuve), Neighbourhood Mercier",209900,45.596668,-73.512575,5.0,5.0,3.0,7.0,7.0,4.0,4.0,8.0,9.0,9,3.0,8.0,9.0,6.0,4.0,6.0,6.0,1997.0,136024,3,5347,9,52,24,9,11,5,45,32,12,8,4,42,35,23,34,66,43,31,10,5,7,4,5,5,86,4,0,29,17,21,14,20,79,21,85.0,5.0,10.0,57.0,8.0,2.0,False,1.0,0.0,931.0,False,False,0.0,False,True,12.21715154215888,255613.94,45713.937499999825
134,"1280, Rue Saint-Jacques, apt. 1406, Montréal (Ville-Marie), Neighbourhood Central",569900,45.494304,-73.56669000000001,10.0,10.0,10.0,7.0,6.0,6.0,4.0,9.0,7.0,10,10.0,10.0,8.0,10.0,10.0,10.0,4.0,2007.0,87168,6,6414,10,58,18,7,8,9,55,31,9,4,2,57,26,17,27,73,33,28,11,8,13,8,1,2,48,49,0,52,15,18,6,9,63,37,54.0,26.0,20.0,91.0,7.0,2.0,False,2.0,0.0,971.0,False,True,1.0,True,True,2.700782948005364,661321.3,91421.3125
135,"175, Rue de la Montagne, apt. 1001, Montréal (Le Sud-Ouest), Neighbourhood Griffintown",509000,45.491959,-73.55905,10.0,10.0,9.0,10.0,6.0,5.0,0.0,7.0,3.0,10,10.0,10.0,8.0,10.0,10.0,9.0,6.0,2017.0,80153,9,5070,8,50,22,9,11,7,46,32,11,7,4,44,32,24,35,65,43,18,11,5,10,13,2,7,71,20,0,38,16,19,9,18,74,26,59.0,26.0,15.0,77.0,5.0,2.0,False,1.0,0.0,687.0,False,False,1.0,True,True,3.350740739792777,504961.94,-4038.0625000001746
136,"3940, Chemin de la Côte-des-Neiges, apt. B62, Montréal (Ville-Marie), Neighbourhood Golden Square Mile",1295000,45.495416,-73.59496899999999,10.0,10.0,7.0,8.0,8.0,5.0,3.0,10.0,10.0,10,8.0,9.0,6.0,9.0,9.0,9.0,9.0,1929.0,87168,6,6414,10,58,18,7,8,9,55,31,9,4,2,57,26,17,27,73,33,28,11,8,13,8,1,2,48,49,0,52,15,18,6,9,63,37,54.0,26.0,20.0,49.0,10.0,3.0,False,3.0,1.0,2232.0,False,False,1.0,True,False,1.0453874554010805,1703050.0,408049.9999999993
137,"4791, Avenue Henri-Julien, Montréal (Le Plateau-Mont-Royal), Neighbourhood Le Plateau-Mont-Royal",699000,45.524252000000004,-73.58659,10.0,10.0,10.0,10.0,2.0,7.0,6.0,10.0,8.0,10,10.0,10.0,9.0,10.0,10.0,10.0,6.0,1997.0,104000,4,12855,8,52,20,8,11,8,52,30,10,6,2,52,32,16,28,72,57,23,7,5,5,2,1,2,82,16,0,57,14,16,5,8,73,27,67.0,23.0,10.0,96.0,6.0,3.0,False,1.0,1.0,1223.0,False,False,1.0,True,True,2.366621327315224,713690.25,14690.250000000466
138,"1983, Rue Cardinal, Montréal (Le Sud-Ouest), Neighbourhood Saint-Paul/Émard",417000,45.460274,-73.591235,8.0,8.0,5.0,9.0,5.0,5.0,9.0,9.0,9.0,8,4.0,10.0,8.0,10.0,5.0,8.0,8.0,2016.0,80153,9,5070,8,50,22,9,11,7,46,32,11,7,4,44,32,24,35,65,43,18,11,5,10,13,2,7,71,20,0,38,16,19,9,18,74,26,59.0,26.0,15.0,65.0,6.0,2.0,False,1.0,0.0,1078.0,False,False,0.0,False,True,4.953079890062448,454802.3,37802.31250000012
139,"7160, boulevard Saint-Laurent, apt. 306, Montréal (Rosemont/La Petite-Patrie), Neighbourhood Little Italy",549000,45.53446478,-73.61804393,10.0,10.0,9.0,10.0,6.0,6.0,3.0,10.0,5.0,10,8.0,10.0,8.0,10.0,10.0,10.0,5.0,1967.0,139590,4,8741,8,52,22,9,11,7,49,29,11,8,3,43,36,21,30,70,52,24,9,5,5,4,2,3,89,6,0,41,17,17,10,15,77,23,83.0,6.0,11.0,90.0,8.0,2.0,False,1.0,1.0,1021.0,False,False,0.0,False,True,3.6705625008696345,509372.53,-39627.468750000466
140,"2900, boulevard de la Côte-Vertu, apt. 206, Montréal (Saint-Laurent), Neighbourhood Saint-Laurent West",549000,45.499711100000006,-73.70030873,6.0,8.0,3.0,5.0,8.0,0.0,8.0,5.0,6.0,6,2.0,8.0,2.0,6.0,5.0,7.0,3.0,2003.0,98828,5,2299,10,42,24,10,13,12,28,27,17,17,11,29,53,18,49,51,27,31,12,9,16,6,11,15,45,30,0,39,16,21,7,17,45,55,37.0,25.0,38.0,52.0,9.0,3.0,False,2.0,0.0,1516.0,False,False,2.0,True,True,7.983489258858782,599374.3,50374.312499999534
141,"100, Rue André-Prévost, apt. 2202, Montréal (Verdun/Île-des-Soeurs), Neighbourhood Île-des-Soeurs",1149000,45.447286,-73.56049,2.0,3.0,1.0,5.0,10.0,0.0,10.0,3.0,0.0,6,0.0,1.0,1.0,3.0,1.0,2.0,6.0,2013.0,69229,5,7181,8,45,22,9,12,11,42,34,13,8,3,46,36,18,37,63,46,21,13,8,9,4,3,7,69,21,0,43,16,18,9,14,75,25,64.0,22.0,14.0,9.0,6.0,3.0,False,2.0,1.0,1760.0,True,True,1.0,True,True,7.011122057626113,1221588.1,72588.12500000023
142,"1254, Rue Saint-Marc, apt. 22, Montréal (Ville-Marie), Neighbourhood Central West",399000,45.49218071,-73.57983646,10.0,10.0,10.0,5.0,4.0,7.0,6.0,10.0,10.0,10,10.0,10.0,10.0,10.0,10.0,10.0,6.0,1914.0,87168,6,6414,10,58,18,7,8,9,55,31,9,4,2,57,26,17,27,73,33,28,11,8,13,8,1,2,48,49,0,52,15,18,6,9,63,37,54.0,26.0,20.0,96.0,7.0,3.0,False,2.0,0.0,857.0,False,False,0.0,False,True,1.9801490571030456,465643.16,66643.15625000023
143,"7651, Rue Berri, Montréal (Villeray/Saint-Michel/Parc-Extension), Neighbourhood Villeray",324800,45.541340000000005,-73.62181947,10.0,10.0,9.0,10.0,4.0,6.0,6.0,8.0,6.0,9,7.0,10.0,10.0,10.0,9.0,9.0,6.0,1925.0,143853,1,8692,11,58,23,8,8,3,40,29,14,11,7,33,42,25,28,72,49,33,6,4,4,3,3,2,91,4,0,29,14,20,11,26,56,44,57.0,10.0,33.0,85.0,4.0,2.0,False,1.0,0.0,648.0,False,False,0.0,False,True,4.488017549106671,306581.62,-18218.375
144,"2823, Rue Jacques-Hertel, apt. 102, Montréal (Le Sud-Ouest), Neighbourhood Saint-Paul/Émard",299000,45.459169,-73.600989,7.0,8.0,5.0,7.0,7.0,5.0,9.0,9.0,6.0,8,4.0,9.0,10.0,9.0,5.0,7.0,6.0,2011.0,80153,9,5070,8,50,22,9,11,7,46,32,11,7,4,44,32,24,35,65,43,18,11,5,10,13,2,7,71,20,0,38,16,19,9,18,74,26,59.0,26.0,15.0,55.0,4.0,1.0,False,1.0,0.0,587.0,False,False,1.0,False,True,5.051924818012052,282456.38,-16543.62500000006
145,"1450, boulevard René-Lévesque Ouest, apt. 1514, Montréal (Ville-Marie), Neighbourhood Central",349000,45.49454605,-73.57384681,10.0,10.0,10.0,4.0,4.0,7.0,1.0,7.0,10.0,10,10.0,10.0,10.0,10.0,10.0,10.0,5.0,2017.0,87168,6,6414,10,58,18,7,8,9,55,31,9,4,2,57,26,17,27,73,33,28,11,8,13,8,1,2,48,49,0,52,15,18,6,9,63,37,54.0,26.0,20.0,97.0,4.0,1.0,False,1.0,0.0,322.0,False,False,0.0,False,True,2.1939374923075228,355149.28,6149.281250000058
146,"6945, Avenue Champchevrier, apt. 302, Montréal (Anjou)",369000,45.600695,-73.57135500000001,7.0,9.0,4.0,3.0,7.0,2.0,0.0,8.0,1.0,8,4.0,9.0,9.0,6.0,6.0,7.0,6.0,1988.0,42796,2,3103,10,45,26,10,12,7,38,31,13,12,7,38,41,21,44,56,15,49,16,10,10,1,8,9,65,18,0,25,17,23,14,20,66,34,76.0,8.0,16.0,82.0,10.0,3.0,False,1.0,0.0,1365.0,False,False,1.0,True,True,10.89106963517473,334821.38,-34178.62500000012
147,"765, Rue Bourget, apt. 538, Montréal (Le Sud-Ouest), Neighbourhood Saint-Henri/Petite Bourgogne",589000,45.48163596,-73.58527839,10.0,10.0,8.0,7.0,5.0,6.0,5.0,9.0,9.0,10,7.0,10.0,9.0,10.0,9.0,10.0,6.0,2008.0,80153,9,5070,8,50,22,9,11,7,46,32,11,7,4,44,32,24,35,65,43,18,11,5,10,13,2,7,71,20,0,38,16,19,9,18,74,26,59.0,26.0,15.0,80.0,5.0,2.0,False,1.0,0.0,878.0,False,True,1.0,True,True,2.7377595409671085,538495.4,-50504.625
148,"3535, Avenue Papineau, apt. 1816, Montréal (Le Plateau-Mont-Royal), Neighbourhood Le Plateau-Mont-Royal",198800,45.529408000000004,-73.56647099999999,10.0,10.0,10.0,10.0,7.0,6.0,1.0,9.0,8.0,10,10.0,10.0,6.0,10.0,10.0,9.0,9.0,1971.0,104000,4,12855,8,52,20,8,11,8,52,30,10,6,2,52,32,16,28,72,57,23,7,5,5,2,1,2,82,16,0,57,14,16,5,8,73,27,67.0,23.0,10.0,86.0,3.0,1.0,False,1.0,0.0,416.0,False,True,0.0,False,True,3.702752849482959,210437.25,11637.250000000116
149,"750, Place Fortier, apt. 1101, Montréal (Saint-Laurent), Neighbourhood Others",309000,45.52063293,-73.6697382,6.0,8.0,3.0,4.0,8.0,2.0,7.0,8.0,8.0,8,2.0,9.0,6.0,7.0,5.0,8.0,5.0,1982.0,98828,5,2299,10,42,24,10,13,12,28,27,17,17,11,29,53,18,49,51,27,31,12,9,16,6,11,15,45,30,0,39,16,21,7,17,45,55,37.0,25.0,38.0,57.0,8.0,3.0,False,2.0,0.0,1333.0,False,True,1.0,True,True,5.860994404290905,398326.6,89326.59374999994
150,"7500, 19e Avenue, apt. 203, Montréal (Villeray/Saint-Michel/Parc-Extension), Neighbourhood Saint-Michel",269000,45.56651314,-73.59812352,8.0,9.0,5.0,5.0,6.0,2.0,8.0,10.0,10.0,10,5.0,10.0,9.0,10.0,6.0,9.0,6.0,2015.0,143853,1,8692,11,58,23,8,8,3,40,29,14,11,7,33,42,25,28,72,49,33,6,4,4,3,3,2,91,4,0,29,14,20,11,26,56,44,57.0,10.0,33.0,69.0,5.0,2.0,False,1.0,0.0,714.0,False,False,0.0,False,True,6.889208610246416,280684.1,11684.09375
151,"4885, boulevard Henri-Bourassa Ouest, apt. 327, Montréal (Saint-Laurent), Neighbourhood Others",299900,45.522878000000006,-73.70739,6.0,7.0,3.0,4.0,8.0,2.0,3.0,10.0,8.0,8,3.0,9.0,10.0,8.0,6.0,9.0,3.0,2010.0,98828,5,2299,10,42,24,10,13,12,28,27,17,17,11,29,53,18,49,51,27,31,12,9,16,6,11,15,45,30,0,39,16,21,7,17,45,55,37.0,25.0,38.0,54.0,5.0,1.0,False,1.0,0.0,780.0,False,False,1.0,True,True,8.755704187821934,321033.28,21133.28125
152,"16360, Rue Sherbrooke Est, apt. 302, Montréal (Rivière-des-Prairies/Pointe-aux-Trembles), Neighbourhood Pointe-aux-Trembles",259900,45.697714000000005,-73.48844799999999,4.0,3.0,2.0,6.0,10.0,2.0,2.0,6.0,3.0,8,1.0,8.0,8.0,3.0,5.0,5.0,4.0,2013.0,106743,0,2515,7,38,25,12,17,8,28,32,17,15,8,34,43,23,64,36,13,28,31,14,11,3,26,24,47,3,0,16,17,25,18,24,76,24,71.0,16.0,13.0,22.0,7.0,3.0,False,1.0,0.0,1086.0,False,False,2.0,True,True,23.110274083699046,263924.78,4024.7812499998836
153,"315, Rue Richmond, apt. 110, Montréal (Le Sud-Ouest), Neighbourhood Griffintown",560000,45.48841231,-73.56487883,10.0,10.0,8.0,9.0,6.0,6.0,9.0,8.0,3.0,10,8.0,9.0,6.0,10.0,9.0,9.0,3.0,2019.0,80153,9,5070,8,50,22,9,11,7,46,32,11,7,4,44,32,24,35,65,43,18,11,5,10,13,2,7,71,20,0,38,16,19,9,18,74,26,59.0,26.0,15.0,78.0,9.0,2.0,False,1.0,0.0,779.0,False,False,1.0,True,True,3.1510407900146014,562710.5,2710.4999999996508
154,"1300, Rue Jarry Est, apt. 1, Montréal (Villeray/Saint-Michel/Parc-Extension), Neighbourhood Villeray",259000,45.54998207,-73.62187922,9.0,10.0,7.0,7.0,8.0,4.0,4.0,10.0,10.0,8,6.0,10.0,10.0,10.0,7.0,9.0,4.0,2004.0,143853,1,8692,11,58,23,8,8,3,40,29,14,11,7,33,42,25,28,72,49,33,6,4,4,3,3,2,91,4,0,29,14,20,11,26,56,44,57.0,10.0,33.0,78.0,6.0,2.0,True,1.0,0.0,732.0,False,False,1.0,False,True,5.379888064341847,266443.16,7443.15625
155,"1050, Rue Drummond, apt. 3701, Montréal (Ville-Marie), Neighbourhood Central West",1190000,45.497357,-73.57110300000001,10.0,10.0,10.0,4.0,5.0,7.0,0.0,7.0,8.0,10,10.0,10.0,9.0,10.0,10.0,10.0,3.0,2017.0,87168,6,6414,10,58,18,7,8,9,55,31,9,4,2,57,26,17,27,73,33,28,11,8,13,8,1,2,48,49,0,52,15,18,6,9,63,37,54.0,26.0,20.0,96.0,8.0,2.0,False,2.0,0.0,988.0,False,True,2.0,True,True,2.2515062934083705,906329.5,-283670.50000000023
156,"6761, Place d'Antioche, apt. 6, Montréal (Anjou)",349000,45.594209,-73.560174,7.0,8.0,4.0,6.0,7.0,0.0,9.0,8.0,3.0,8,4.0,8.0,6.0,8.0,5.0,6.0,6.0,1983.0,42796,2,3103,10,45,26,10,12,7,38,31,13,12,7,38,41,21,44,56,15,49,16,10,10,1,8,9,65,18,0,25,17,23,14,20,66,34,76.0,8.0,16.0,66.0,6.0,3.0,False,1.0,0.0,1117.0,False,False,1.0,True,True,10.397188786248721,314871.06,-34128.93749999994
157,"1225, Rue Notre-Dame Ouest, apt. 620, Montréal (Ville-Marie), Neighbourhood Central",460000,45.4939295,-73.56433615,10.0,10.0,10.0,9.0,5.0,6.0,6.0,10.0,5.0,10,10.0,10.0,10.0,10.0,10.0,10.0,3.0,2004.0,87168,6,6414,10,58,18,7,8,9,55,31,9,4,2,57,26,17,27,73,33,28,11,8,13,8,1,2,48,49,0,52,15,18,6,9,63,37,54.0,26.0,20.0,87.0,2.0,2.0,False,1.0,0.0,728.0,False,False,1.0,True,True,2.8849511154388354,425539.7,-34460.31250000012
158,"6463, Avenue De Lorimier, apt. 206, Montréal (Rosemont/La Petite-Patrie), Neighbourhood La Petite-Patrie",348000,45.545547,-73.594164,10.0,10.0,9.0,10.0,6.0,5.0,5.0,10.0,9.0,8,8.0,9.0,10.0,10.0,8.0,9.0,6.0,2015.0,139590,4,8741,8,52,22,9,11,7,49,29,11,8,3,43,36,21,30,70,52,24,9,5,5,4,2,3,89,6,0,41,17,17,10,15,77,23,83.0,6.0,11.0,84.0,4.0,1.0,False,1.0,0.0,612.0,False,False,1.0,True,True,4.568203255183164,360879.38,12879.374999999884
159,"10200, boulevard de l'Acadie, apt. 908, Montréal (Ahuntsic-Cartierville), Neighbourhood Nouveau Bordeaux",369900,45.533959,-73.673547,7.0,9.0,4.0,3.0,9.0,0.0,2.0,10.0,6.0,10,3.0,10.0,6.0,8.0,5.0,8.0,4.0,2013.0,134245,6,5545,10,49,23,9,11,9,41,27,13,12,7,34,46,20,39,61,37,33,14,6,6,4,9,5,73,13,0,36,16,20,10,17,59,41,65.0,10.0,25.0,52.0,8.0,2.0,False,2.0,0.0,862.0,False,False,1.0,True,True,6.725887872013064,406479.34,36579.343750000175
160,"6541, boulevard Saint-Laurent, apt. 201, Montréal (Rosemont/La Petite-Patrie), Neighbourhood Little Italy",289000,45.530821,-73.609237,10.0,10.0,10.0,10.0,5.0,6.0,2.0,9.0,7.0,10,9.0,10.0,8.0,10.0,10.0,10.0,4.0,2010.0,139590,4,8741,8,52,22,9,11,7,49,29,11,8,3,43,36,21,30,70,52,24,9,5,5,4,2,3,89,6,0,41,17,17,10,15,77,23,83.0,6.0,11.0,91.0,1.0,1.0,False,1.0,0.0,484.0,False,False,0.0,False,True,3.046517210060452,322465.3,33465.31250000012
161,"6057, Avenue MacDonald, Montréal (Côte-des-Neiges/Notre-Dame-de-Grâce), Neighbourhood Côte-des-Neiges",818000,45.485864,-73.643759,7.0,8.0,4.0,5.0,7.0,3.0,8.0,9.0,6.0,8,3.0,10.0,9.0,8.0,5.0,8.0,8.0,1953.0,166011,1,7718,11,54,21,8,9,9,40,29,15,11,6,33,45,22,27,73,51,30,8,5,4,3,3,6,69,22,0,47,16,19,6,12,50,50,33.0,39.0,28.0,58.0,15.0,4.0,False,3.0,0.0,2400.0,False,False,4.0,True,False,4.121123397549262,1054905.1,236905.12499999965
162,"2024, Avenue Jeanne-d'Arc, apt. 2, Montréal (Mercier/Hochelaga-Maisonneuve), Neighbourhood Hochelaga-Maisonneuve",389000,45.54962116,-73.54235263,8.0,7.0,7.0,9.0,5.0,6.0,8.0,10.0,9.0,8,5.0,10.0,10.0,10.0,6.0,8.0,4.0,2009.0,136024,3,5347,9,52,24,9,11,5,45,32,12,8,4,42,35,23,34,66,43,31,10,5,7,4,5,5,86,4,0,29,17,21,14,20,79,21,85.0,5.0,10.0,88.0,5.0,2.0,False,1.0,0.0,758.0,False,False,1.0,False,True,6.6310724466204025,332932.56,-56067.43750000035
163,"9619, Rue Notre-Dame Est, Montréal (Mercier/Hochelaga-Maisonneuve), Neighbourhood Hochelaga-Maisonneuve",449000,45.610271000000004,-73.511096,5.0,5.0,3.0,7.0,10.0,4.0,3.0,9.0,5.0,7,4.0,8.0,6.0,5.0,4.0,6.0,3.0,1953.0,136024,3,5347,9,52,24,9,11,5,45,32,12,8,4,42,35,23,34,66,43,31,10,5,7,4,5,5,86,4,0,29,17,21,14,20,79,21,85.0,5.0,10.0,28.0,6.0,3.0,False,1.0,0.0,1482.0,False,False,1.0,False,True,13.567146140577545,389783.06,-59216.93749999994
164,"1553, Rue du Centre, apt. 201, Montréal (Le Sud-Ouest), Neighbourhood Pointe-Saint-Charles",459000,45.485018,-73.559064,10.0,10.0,7.0,10.0,7.0,6.0,7.0,9.0,7.0,10,7.0,9.0,10.0,10.0,8.0,9.0,5.0,2011.0,80153,9,5070,8,50,22,9,11,7,46,32,11,7,4,44,32,24,35,65,43,18,11,5,10,13,2,7,71,20,0,38,16,19,9,18,74,26,59.0,26.0,15.0,63.0,7.0,2.0,False,1.0,0.0,850.0,False,False,1.0,True,True,3.738981480614024,478830.7,19830.687500000233
165,"3655, Rue Jean-Gascon, apt. 105, Montréal (Saint-Laurent), Neighbourhood New Saint-Laurent/Bois-Franc",488000,45.51044304,-73.71947995,5.0,6.0,2.0,6.0,8.0,0.0,9.0,7.0,6.0,8,1.0,6.0,6.0,5.0,5.0,6.0,2.0,2016.0,98828,5,2299,10,42,24,10,13,12,28,27,17,17,11,29,53,18,49,51,27,31,12,9,16,6,11,15,45,30,0,39,16,21,7,17,45,55,37.0,25.0,38.0,30.0,2.0,2.0,False,2.0,0.0,935.0,False,True,2.0,True,True,9.481101171440498,506528.97,18528.96874999965
166,"7273, Rue Chouinard, Montréal (LaSalle)",449000,45.44093594,-73.61580315,6.0,7.0,3.0,6.0,8.0,0.0,9.0,5.0,1.0,9,3.0,9.0,9.0,6.0,5.0,7.0,6.0,1995.0,76853,3,4675,10,48,25,10,11,6,36,30,15,12,6,34,43,23,40,60,25,50,10,7,4,3,4,8,85,4,0,25,17,26,12,20,63,37,42.0,36.0,22.0,60.0,7.0,3.0,False,1.0,0.0,1706.0,False,False,0.0,False,True,7.207699901386605,480979.9,31979.90625000006
167,"4597, Avenue Papineau, Montréal (Le Plateau-Mont-Royal), Neighbourhood Le Plateau-Mont-Royal",385000,45.533731,-73.575797,10.0,10.0,10.0,10.0,6.0,7.0,0.0,9.0,8.0,10,10.0,10.0,9.0,10.0,10.0,9.0,6.0,1910.0,104000,4,12855,8,52,20,8,11,8,52,30,10,6,2,52,32,16,28,72,57,23,7,5,5,2,1,2,82,16,0,57,14,16,5,8,73,27,67.0,23.0,10.0,91.0,5.0,2.0,False,1.0,0.0,747.0,False,False,0.0,False,False,3.680224457993825,389429.75,4429.749999999767
168,"945, Rue Muir, apt. 306, Montréal (Saint-Laurent), Neighbourhood Others",319000,45.52356473,-73.67087120000001,7.0,8.0,4.0,4.0,8.0,2.0,2.0,8.0,8.0,9,2.0,9.0,8.0,7.0,6.0,9.0,7.0,2005.0,98828,5,2299,10,42,24,10,13,12,28,27,17,17,11,29,53,18,49,51,27,31,12,9,16,6,11,15,45,30,0,39,16,21,7,17,45,55,37.0,25.0,38.0,63.0,8.0,2.0,False,2.0,0.0,773.0,False,False,1.0,True,True,6.051008001992595,381758.72,62758.71875
169,"3300, boulevard Cavendish, apt. 408, Montréal (Côte-des-Neiges/Notre-Dame-de-Grâce), Neighbourhood Notre-Dame-de-Grâce",259000,45.462897999999996,-73.62815,7.0,8.0,5.0,6.0,8.0,4.0,0.0,10.0,10.0,8,4.0,10.0,10.0,9.0,6.0,9.0,5.0,2013.0,166011,1,7718,11,54,21,8,9,9,40,29,15,11,6,33,45,22,27,73,51,30,8,5,4,3,3,6,69,22,0,47,16,19,6,12,50,50,33.0,39.0,28.0,70.0,5.0,1.0,False,1.0,0.0,648.0,False,False,0.0,True,True,5.190828718100035,304409.38,45409.375
170,"6811, Rue Clark, Montréal (Rosemont/La Petite-Patrie), Neighbourhood Little Italy",235000,45.532244,-73.614416,10.0,10.0,9.0,10.0,5.0,6.0,4.0,10.0,5.0,10,8.0,10.0,6.0,10.0,10.0,9.0,5.0,1910.0,139590,4,8741,8,52,22,9,11,7,49,29,11,8,3,43,36,21,30,70,52,24,9,5,5,4,2,3,89,6,0,41,17,17,10,15,77,23,83.0,6.0,11.0,92.0,3.0,1.0,False,1.0,0.0,508.0,False,False,0.0,False,True,3.3306608078093407,294298.12,59298.125
171,"195, Rue Peel, apt. 1803, Montréal (Le Sud-Ouest), Neighbourhood Griffintown",419900,45.49342955,-73.55789279999999,10.0,10.0,9.0,10.0,7.0,6.0,0.0,9.0,3.0,10,9.0,10.0,9.0,10.0,10.0,10.0,4.0,2018.0,80153,9,5070,8,50,22,9,11,7,46,32,11,7,4,44,32,24,35,65,43,18,11,5,10,13,2,7,71,20,0,38,16,19,9,18,74,26,59.0,26.0,15.0,79.0,4.0,1.0,False,1.0,0.0,550.0,False,False,0.0,False,True,3.369424758133037,387281.25,-32618.750000000233
172,"1010, Rue William, apt. 407, Montréal (Le Sud-Ouest), Neighbourhood Griffintown",499000,45.4956027,-73.56058656,10.0,10.0,10.0,9.0,5.0,7.0,4.0,10.0,4.0,9,9.0,10.0,8.0,10.0,10.0,10.0,3.0,2012.0,80153,9,5070,8,50,22,9,11,7,46,32,11,7,4,44,32,24,35,65,43,18,11,5,10,13,2,7,71,20,0,38,16,19,9,18,74,26,59.0,26.0,15.0,84.0,6.0,2.0,False,1.0,0.0,685.0,False,True,1.0,True,True,3.0888862290852703,500982.6,1982.5937500004075
173,"2212, Rue Harmony, apt. 202, Montréal (Ville-Marie), Neighbourhood Central",449000,45.531296999999995,-73.558324,10.0,10.0,10.0,10.0,4.0,7.0,7.0,10.0,10.0,10,10.0,10.0,10.0,10.0,9.0,9.0,6.0,2017.0,87168,6,6414,10,58,18,7,8,9,55,31,9,4,2,57,26,17,27,73,33,28,11,8,13,8,1,2,48,49,0,52,15,18,6,9,63,37,54.0,26.0,20.0,84.0,6.0,2.0,False,1.0,0.0,921.0,False,False,0.0,False,True,4.2949865026220655,455668.44,6668.437500000058
174,"2530, Place Michel-Brault, apt. 513, Montréal (Rosemont/La Petite-Patrie), Neighbourhood Old Rosemont",289700,45.542214,-73.573966,10.0,9.0,7.0,9.0,6.0,3.0,3.0,7.0,4.0,10,8.0,10.0,6.0,8.0,8.0,8.0,3.0,2015.0,139590,4,8741,8,52,22,9,11,7,49,29,11,8,3,43,36,21,30,70,52,24,9,5,5,4,2,3,89,6,0,41,17,17,10,15,77,23,83.0,6.0,11.0,78.0,4.0,1.0,False,1.0,0.0,523.0,False,True,0.0,False,True,4.5901409759957374,306830.84,17130.843749999884
175,"2244, Rue Victoria, apt. 2, Montréal (Lachine), Neighbourhood East",419900,45.436199,-73.684462,5.0,5.0,3.0,8.0,8.0,5.0,8.0,8.0,6.0,10,4.0,9.0,6.0,7.0,6.0,5.0,5.0,2014.0,44489,7,2498,9,48,22,10,12,9,40,29,14,11,5,35,41,24,43,57,44,27,9,7,7,6,15,10,70,6,0,27,16,23,13,21,77,23,59.0,30.0,11.0,57.0,7.0,2.0,False,1.0,0.0,773.0,False,False,1.0,False,True,10.154991208002306,303752.53,-116147.46875000023
176,"640, Rue Henri-Duhamel, apt. 2, Montréal (Verdun/Île-des-Soeurs), Neighbourhood Verdun",299000,45.47215772,-73.57120092,9.0,9.0,5.0,8.0,8.0,5.0,6.0,10.0,7.0,10,5.0,10.0,8.0,10.0,7.0,9.0,4.0,2017.0,69229,5,7181,8,45,22,9,12,11,42,34,13,8,3,46,36,18,37,63,46,21,13,8,9,4,3,7,69,21,0,43,16,18,9,14,75,25,64.0,22.0,14.0,69.0,5.0,1.0,True,1.0,0.0,621.0,False,False,0.0,False,True,4.168597394269882,363734.78,64734.78124999994
177,"164, Rue Galt, Montréal (Verdun/Île-des-Soeurs), Neighbourhood Verdun",499000,45.461632,-73.56527,8.0,8.0,5.0,8.0,7.0,6.0,8.0,10.0,5.0,10,4.0,10.0,10.0,10.0,6.0,9.0,6.0,1993.0,69229,5,7181,8,45,22,9,12,11,42,34,13,8,3,46,36,18,37,63,46,21,13,8,9,4,3,7,69,21,0,43,16,18,9,14,75,25,64.0,22.0,14.0,85.0,8.0,3.0,False,1.0,1.0,1171.0,False,False,1.0,False,True,5.416119702276187,491730.97,-7269.031249999593
178,"2507, Rue Champdoré, apt. 104, Montréal (Villeray/Saint-Michel/Parc-Extension), Neighbourhood Saint-Michel",199900,45.571529,-73.636101,7.0,7.0,4.0,6.0,7.0,2.0,9.0,10.0,10.0,10,3.0,9.0,6.0,9.0,5.0,7.0,5.0,2006.0,143853,1,8692,11,58,23,8,8,3,40,29,14,11,7,33,42,25,28,72,49,33,6,4,4,3,3,2,91,4,0,29,14,20,11,26,56,44,57.0,10.0,33.0,61.0,5.0,2.0,False,1.0,0.0,788.0,False,False,0.0,False,True,8.013426790397828,243846.16,43946.15625000003
179,"760, Chemin Marie-Le Ber, apt. 222, Montréal (Verdun/Île-des-Soeurs), Neighbourhood Île-des-Soeurs",325000,45.46461,-73.550104,4.0,4.0,2.0,7.0,9.0,0.0,10.0,4.0,1.0,7,1.0,9.0,5.0,4.0,2.0,4.0,9.0,1994.0,69229,5,7181,8,45,22,9,12,11,42,34,13,8,3,46,36,18,37,63,46,21,13,8,9,4,3,7,69,21,0,43,16,18,9,14,75,25,64.0,22.0,14.0,50.0,4.0,1.0,False,1.0,1.0,695.0,False,False,0.0,False,True,5.808034990255897,286358.25,-38641.74999999988
180,"888, Rue Wellington, apt. 1803, Montréal (Ville-Marie), Neighbourhood La Cité du Multimédia",1249000,45.494753,-73.555578,10.0,10.0,9.0,9.0,5.0,6.0,0.0,8.0,2.0,10,9.0,10.0,9.0,9.0,10.0,10.0,7.0,2014.0,87168,6,6414,10,58,18,7,8,9,55,31,9,4,2,57,26,17,27,73,33,28,11,8,13,8,1,2,48,49,0,52,15,18,6,9,63,37,54.0,26.0,20.0,81.0,5.0,2.0,False,2.0,0.0,1313.0,False,True,2.0,True,True,3.489073934740238,885360.5,-363639.50000000023
181,"2380, Avenue Pierre-Dupuy, apt. 605, Montréal (Ville-Marie), Neighbourhood Cité du Havre",975000,45.495776,-73.544409,9.0,8.0,4.0,7.0,10.0,0.0,1.0,1.0,0.0,9,5.0,4.0,1.0,7.0,6.0,7.0,4.0,2004.0,87168,6,6414,10,58,18,7,8,9,55,31,9,4,2,57,26,17,27,73,33,28,11,8,13,8,1,2,48,49,0,52,15,18,6,9,63,37,54.0,26.0,20.0,5.0,6.0,2.0,False,2.0,0.0,1681.0,True,True,1.0,True,True,4.297241634131521,845396.4,-129603.62499999988
182,"5675, Avenue De Chateaubriand, apt. 111, Montréal (Rosemont/La Petite-Patrie), Neighbourhood La Petite-Patrie",349900,45.55072212,-73.58333588,9.0,9.0,8.0,10.0,4.0,5.0,4.0,10.0,10.0,10,7.0,10.0,6.0,10.0,7.0,9.0,7.0,2011.0,139590,4,8741,8,52,22,9,11,7,49,29,11,8,3,43,36,21,30,70,52,24,9,5,5,4,2,3,89,6,0,41,17,17,10,15,77,23,83.0,6.0,11.0,83.0,5.0,1.0,False,1.0,0.0,599.0,False,False,0.0,False,True,5.260658431674271,300595.88,-49304.12499999994
183,"204, Rue de l'Hôpital, apt. 401, Montréal (Ville-Marie), Neighbourhood Old Montréal",620000,45.503252,-73.55668399999999,10.0,10.0,10.0,6.0,5.0,10.0,7.0,8.0,3.0,10,10.0,10.0,6.0,10.0,10.0,10.0,4.0,1904.0,87168,6,6414,10,58,18,7,8,9,55,31,9,4,2,57,26,17,27,73,33,28,11,8,13,8,1,2,48,49,0,52,15,18,6,9,63,37,54.0,26.0,20.0,93.0,5.0,2.0,False,2.0,0.0,959.0,False,False,0.0,True,True,3.231209571181924,610492.2,-9507.812500000466
184,"2330, Rue Ward, apt. 402, Montréal (Saint-Laurent), Neighbourhood Saint-Laurent West",295000,45.496431,-73.681258,6.0,7.0,3.0,3.0,8.0,0.0,5.0,8.0,8.0,6,2.0,7.0,8.0,6.0,6.0,7.0,4.0,1988.0,98828,5,2299,10,42,24,10,13,12,28,27,17,17,11,29,53,18,49,51,27,31,12,9,16,6,11,15,45,30,0,39,16,21,7,17,45,55,37.0,25.0,38.0,33.0,8.0,2.0,False,1.0,0.0,948.0,False,False,1.0,True,True,6.543448443939695,320295.06,25295.062500000175
185,"828, Avenue Querbes, apt. 308, Montréal (Outremont)",948000,45.523792,-73.612398,10.0,10.0,8.0,9.0,4.0,6.0,1.0,9.0,8.0,10,7.0,10.0,10.0,10.0,9.0,9.0,7.0,2002.0,23954,2,6254,6,29,19,9,15,27,33,30,14,13,10,34,50,16,54,46,73,16,4,4,2,1,8,14,59,19,0,59,14,15,3,10,74,26,61.0,19.0,20.0,80.0,12.0,3.0,False,2.0,0.0,1709.0,False,False,1.0,True,True,2.4114459370688963,999554.9,51554.8750000007
186,"5229, Avenue De Lorimier, Montréal (Le Plateau-Mont-Royal), Neighbourhood Le Plateau-Mont-Royal",249000,45.53878191,-73.57983129,10.0,10.0,9.0,10.0,5.0,6.0,3.0,10.0,6.0,10,9.0,9.0,6.0,10.0,9.0,9.0,8.0,1925.0,104000,4,12855,8,52,20,8,11,8,52,30,10,6,2,52,32,16,28,72,57,23,7,5,5,2,1,2,82,16,0,57,14,16,5,8,73,27,67.0,23.0,10.0,76.0,4.0,1.0,False,1.0,0.0,541.0,False,False,0.0,False,True,4.063182731056462,257586.08,8586.078124999942
187,"12640, Rue Sherbrooke Est, apt. 11, Montréal (Rivière-des-Prairies/Pointe-aux-Trembles), Neighbourhood Pointe-aux-Trembles",174000,45.651998999999996,-73.51023359,5.0,7.0,2.0,5.0,10.0,0.0,2.0,9.0,6.0,7,4.0,9.0,9.0,6.0,5.0,6.0,3.0,1985.0,106743,0,2515,7,38,25,12,17,8,28,32,17,15,8,34,43,23,64,36,13,28,31,14,11,3,26,24,47,3,0,16,17,25,18,24,76,24,71.0,16.0,13.0,73.0,8.0,2.0,False,1.0,0.0,883.0,False,False,1.0,False,True,17.763999476079558,185269.62,11269.625
188,"2610, Avenue Bennett, apt. 326, Montréal (Mercier/Hochelaga-Maisonneuve), Neighbourhood Hochelaga-Maisonneuve",409000,45.557761,-73.547913,7.0,7.0,5.0,9.0,7.0,4.0,3.0,7.0,8.0,10,4.0,10.0,10.0,9.0,6.0,9.0,7.0,1989.0,136024,3,5347,9,52,24,9,11,5,45,32,12,8,4,42,35,23,34,66,43,31,10,5,7,4,5,5,86,4,0,29,17,21,14,20,79,21,85.0,5.0,10.0,58.0,6.0,2.0,False,1.0,0.0,1078.0,False,False,1.0,True,True,7.091134384868492,440168.44,31168.437499999884
189,"1641, Rue De Chambly, Montréal (Mercier/Hochelaga-Maisonneuve), Neighbourhood Hochelaga-Maisonneuve",353000,45.544866999999996,-73.541234,8.0,8.0,7.0,10.0,5.0,7.0,9.0,10.0,7.0,7,6.0,9.0,6.0,10.0,6.0,8.0,7.0,1910.0,136024,3,5347,9,52,24,9,11,5,45,32,12,8,4,42,35,23,34,66,43,31,10,5,7,4,5,5,86,4,0,29,17,21,14,20,79,21,85.0,5.0,10.0,83.0,5.0,2.0,False,1.0,0.0,689.0,False,False,2.0,False,True,6.302287970115991,319151.62,-33848.374999999825
190,"1000, boulevard René-Lévesque Est, apt. 504, Montréal (Ville-Marie), Neighbourhood Village",475000,45.515951,-73.554783,10.0,10.0,10.0,9.0,4.0,7.0,2.0,5.0,4.0,10,10.0,9.0,9.0,10.0,10.0,10.0,4.0,2005.0,87168,6,6414,10,58,18,7,8,9,55,31,9,4,2,57,26,17,27,73,33,28,11,8,13,8,1,2,48,49,0,52,15,18,6,9,63,37,54.0,26.0,20.0,91.0,5.0,1.0,False,1.0,0.0,889.0,False,True,1.0,True,True,3.605640787975528,490610.97,15610.968750000233
191,"4900, boulevard de l'Assomption, apt. 1004, Montréal (Rosemont/La Petite-Patrie), Neighbourhood Cité-Jardin",315000,45.57051,-73.554911,7.0,7.0,4.0,6.0,10.0,0.0,4.0,7.0,10.0,10,3.0,9.0,5.0,8.0,6.0,9.0,7.0,2011.0,139590,4,8741,8,52,22,9,11,7,49,29,11,8,3,43,36,21,30,70,52,24,9,5,5,4,2,3,89,6,0,41,17,17,10,15,77,23,83.0,6.0,11.0,48.0,3.0,1.0,False,1.0,0.0,569.0,False,True,1.0,True,True,8.068426424880322,294812.47,-20187.531250000175
192,"2910, Rue Ontario Est, apt. 514, Montréal (Ville-Marie), Neighbourhood Village",449000,45.537341,-73.549196,10.0,9.0,8.0,9.0,7.0,6.0,0.0,8.0,7.0,8,7.0,9.0,6.0,7.0,7.0,9.0,6.0,2012.0,87168,6,6414,10,58,18,7,8,9,55,31,9,4,2,57,26,17,27,73,33,28,11,8,13,8,1,2,48,49,0,52,15,18,6,9,63,37,54.0,26.0,20.0,80.0,9.0,2.0,False,1.0,0.0,1180.0,False,False,0.0,False,True,5.2733122910962615,453911.88,4911.875000000058
193,"1693, Rue Gilford, Montréal (Le Plateau-Mont-Royal), Neighbourhood Le Plateau-Mont-Royal",649000,45.53423595,-73.57850218,10.0,10.0,10.0,10.0,3.0,7.0,1.0,10.0,7.0,10,10.0,10.0,10.0,10.0,10.0,9.0,8.0,1996.0,104000,4,12855,8,52,20,8,11,8,52,30,10,6,2,52,32,16,28,72,57,23,7,5,5,2,1,2,82,16,0,57,14,16,5,8,73,27,67.0,23.0,10.0,90.0,6.0,3.0,False,1.0,0.0,1136.0,False,False,0.0,False,True,3.636384878686468,563610.6,-85389.37500000047
194,"1288, Avenue des Canadiens-de-Montréal, apt. 3814, Montréal (Ville-Marie), Neighbourhood Central West",499000,45.495988,-73.569304,10.0,10.0,10.0,4.0,5.0,6.0,0.0,8.0,7.0,10,10.0,9.0,10.0,9.0,10.0,10.0,3.0,2016.0,87168,6,6414,10,58,18,7,8,9,55,31,9,4,2,57,26,17,27,73,33,28,11,8,13,8,1,2,48,49,0,52,15,18,6,9,63,37,54.0,26.0,20.0,91.0,5.0,1.0,False,1.0,0.0,626.0,False,True,0.0,False,True,2.4384566914625094,499248.4,248.40625000040745
195,"1045, Rue Wellington, apt. 408, Montréal (Le Sud-Ouest), Neighbourhood Griffintown",365000,45.493784999999995,-73.55749399999999,10.0,10.0,9.0,10.0,5.0,6.0,3.0,9.0,3.0,10,9.0,10.0,9.0,10.0,10.0,10.0,3.0,2013.0,80153,9,5070,8,50,22,9,11,7,46,32,11,7,4,44,32,24,35,65,43,18,11,5,10,13,2,7,71,20,0,38,16,19,9,18,74,26,59.0,26.0,15.0,79.0,6.0,2.0,False,1.0,0.0,696.0,False,False,0.0,False,True,3.384154804136129,406670.88,41670.87500000023
196,"3457, Rue Sainte-Catherine Est, apt. 4, Montréal (Mercier/Hochelaga-Maisonneuve), Neighbourhood Hochelaga-Maisonneuve",389000,45.54202749,-73.53955071,8.0,7.0,7.0,10.0,6.0,6.0,7.0,10.0,5.0,8,6.0,9.0,6.0,10.0,5.0,8.0,5.0,2005.0,136024,3,5347,9,52,24,9,11,5,45,32,12,8,4,42,35,23,34,66,43,31,10,5,7,4,5,5,86,4,0,29,17,21,14,20,79,21,85.0,5.0,10.0,71.0,7.0,3.0,False,2.0,0.0,1300.0,False,False,0.0,False,True,6.178046517308292,438762.3,49762.31249999965
197,"2683, Rue Aylwin, Montréal (Mercier/Hochelaga-Maisonneuve), Neighbourhood Hochelaga-Maisonneuve",349900,45.547199,-73.554383,9.0,8.0,7.0,8.0,5.0,5.0,3.0,10.0,6.0,10,7.0,10.0,10.0,10.0,6.0,9.0,8.0,1998.0,136024,3,5347,9,52,24,9,11,5,45,32,12,8,4,42,35,23,34,66,43,31,10,5,7,4,5,5,86,4,0,29,17,21,14,20,79,21,85.0,5.0,10.0,72.0,8.0,2.0,False,1.0,0.0,724.0,False,False,0.0,False,True,5.8380611944968654,303313.7,-46586.31249999994
198,"674, Rue Osborne, Montréal (Verdun/Île-des-Soeurs), Neighbourhood Verdun",575000,45.451246000000005,-73.57326675,7.0,7.0,5.0,10.0,6.0,5.0,8.0,9.0,6.0,8,4.0,8.0,9.0,10.0,6.0,7.0,7.0,1930.0,69229,5,7181,8,45,22,9,12,11,42,34,13,8,3,46,36,18,37,63,46,21,13,8,9,4,3,7,69,21,0,43,16,18,9,14,75,25,64.0,22.0,14.0,74.0,9.0,4.0,False,2.0,0.0,1541.0,False,False,1.0,False,True,6.236203588865344,568660.4,-6339.625000000116
199,"7018, Rue Marie-Rollet, apt. 3D, Montréal (LaSalle)",299900,45.44393876,-73.61102146,6.0,8.0,3.0,5.0,9.0,0.0,7.0,3.0,1.0,10,3.0,8.0,6.0,6.0,5.0,7.0,6.0,2002.0,76853,3,4675,10,48,25,10,11,6,36,30,15,12,6,34,43,23,40,60,25,50,10,7,4,3,4,8,85,4,0,25,17,26,12,20,63,37,42.0,36.0,22.0,50.0,5.0,1.0,False,1.0,0.0,838.0,False,False,1.0,True,True,6.8152787456652355,317477.44,17577.4375
200,"2200, boulevard Thimens, apt. 803, Montréal (Saint-Laurent), Neighbourhood Saint-Laurent West",1695000,45.509619,-73.696526,6.0,7.0,3.0,8.0,10.0,0.0,4.0,8.0,8.0,10,3.0,8.0,6.0,6.0,5.0,8.0,3.0,2013.0,98828,5,2299,10,42,24,10,13,12,28,27,17,17,11,29,53,18,49,51,27,31,12,9,16,6,11,15,45,30,0,39,16,21,7,17,45,55,37.0,25.0,38.0,52.0,12.0,3.0,False,2.0,0.0,2355.0,False,True,4.0,True,True,7.6904298284342225,1333480.8,-361519.24999999977
201,"297, Rue du Shannon, apt. 711, Montréal (Le Sud-Ouest), Neighbourhood Griffintown",799000,45.49517027,-73.56002061,10.0,10.0,10.0,9.0,4.0,6.0,4.0,10.0,3.0,9,9.0,10.0,8.0,10.0,10.0,10.0,4.0,2013.0,80153,9,5070,8,50,22,9,11,7,46,32,11,7,4,44,32,24,35,65,43,18,11,5,10,13,2,7,71,20,0,38,16,19,9,18,74,26,59.0,26.0,15.0,84.0,10.0,2.0,False,2.0,0.0,1157.0,False,True,2.0,True,True,3.1463064317938705,823982.1,24982.12500000035
202,"14689, Rue Aumais, apt. 5, Montréal (L'Île-Bizard/Sainte-Geneviève), Neighbourhood Sainte-Geneviève",324000,45.487759000000004,-73.859729,5.0,3.0,2.0,5.0,8.0,2.0,8.0,7.0,3.0,8,3.0,7.0,6.0,5.0,5.0,4.0,7.0,1989.0,18413,2,778,7,30,19,10,20,21,25,31,18,18,9,34,50,16,74,26,13,30,27,15,11,4,61,8,27,2,2,33,21,22,11,13,75,25,53.0,35.0,12.0,55.0,7.0,3.0,False,2.0,0.0,1350.0,False,False,1.0,True,True,20.47716193350596,367025.22,43025.21875000012
203,"225, Rue de la Montagne, apt. 801, Montréal (Le Sud-Ouest), Neighbourhood Griffintown",449000,45.49202658,-73.56023463,10.0,10.0,9.0,10.0,6.0,5.0,0.0,7.0,3.0,10,10.0,10.0,8.0,10.0,10.0,9.0,6.0,2012.0,80153,9,5070,8,50,22,9,11,7,46,32,11,7,4,44,32,24,35,65,43,18,11,5,10,13,2,7,71,20,0,38,16,19,9,18,74,26,59.0,26.0,15.0,80.0,4.0,2.0,False,1.0,0.0,722.0,False,True,1.0,True,True,3.2638781255378775,491952.8,42952.81250000006
204,"50, Rue des Soeurs-Grises, apt. 204, Montréal (Ville-Marie), Neighbourhood La Cité du Multimédia",448500,45.49846308,-73.55386687,10.0,10.0,9.0,8.0,5.0,9.0,5.0,8.0,3.0,10,9.0,10.0,6.0,10.0,10.0,9.0,4.0,1999.0,87168,6,6414,10,58,18,7,8,9,55,31,9,4,2,57,26,17,27,73,33,28,11,8,13,8,1,2,48,49,0,52,15,18,6,9,63,37,54.0,26.0,20.0,87.0,4.0,1.0,False,1.0,0.0,840.0,False,True,1.0,True,True,3.513600605329188,483883.97,35383.96875000006
205,"5955, Avenue Wilderton, apt. 10C, Montréal (Côte-des-Neiges/Notre-Dame-de-Grâce), Neighbourhood Côte-des-Neiges",1968000,45.509815,-73.62176,9.0,9.0,5.0,5.0,5.0,3.0,6.0,9.0,10.0,10,5.0,9.0,8.0,10.0,7.0,8.0,7.0,1984.0,166011,1,7718,11,54,21,8,9,9,40,29,15,11,6,33,45,22,27,73,51,30,8,5,4,3,3,6,69,22,0,47,16,19,6,12,50,50,33.0,39.0,28.0,56.0,13.0,3.0,False,2.0,1.0,2490.0,False,False,2.0,True,True,1.933949002022436,1941719.5,-26280.500000001397
206,"2801, Rue du Centre, apt. 108, Montréal (Le Sud-Ouest), Neighbourhood Pointe-Saint-Charles",355000,45.476986,-73.572119,10.0,10.0,5.0,9.0,6.0,5.0,0.0,7.0,5.0,10,6.0,10.0,4.0,9.0,7.0,9.0,8.0,1999.0,80153,9,5070,8,50,22,9,11,7,46,32,11,7,4,44,32,24,35,65,43,18,11,5,10,13,2,7,71,20,0,38,16,19,9,18,74,26,59.0,26.0,15.0,75.0,4.0,0.0,False,1.0,0.0,904.0,False,False,0.0,False,True,3.6744611343493014,379279.44,24279.437500000116
207,"2061, Rue Beaudry, Montréal (Ville-Marie), Neighbourhood Central",419000,45.522113,-73.56294799999999,10.0,10.0,10.0,10.0,4.0,7.0,3.0,10.0,8.0,10,10.0,10.0,6.0,10.0,10.0,10.0,7.0,2000.0,87168,6,6414,10,58,18,7,8,9,55,31,9,4,2,57,26,17,27,73,33,28,11,8,13,8,1,2,48,49,0,52,15,18,6,9,63,37,54.0,26.0,20.0,90.0,7.0,2.0,True,1.0,0.0,990.0,False,False,0.0,False,True,3.3637385459918385,457179.28,38179.28125000023
208,"3601, Rue Saint-Jacques, apt. 313, Montréal (Le Sud-Ouest), Neighbourhood Saint-Henri/Petite Bourgogne",420000,45.48114013,-73.58343638,10.0,10.0,8.0,8.0,6.0,7.0,5.0,9.0,9.0,10,7.0,10.0,9.0,10.0,9.0,10.0,5.0,1875.0,80153,9,5070,8,50,22,9,11,7,46,32,11,7,4,44,32,24,35,65,43,18,11,5,10,13,2,7,71,20,0,38,16,19,9,18,74,26,59.0,26.0,15.0,81.0,5.0,1.0,False,1.0,0.0,677.0,False,False,0.0,False,True,2.8437846163325187,440577.5,20577.5
209,"7700, Rue du Mans, apt. 301, Montréal (Saint-Léonard)",469000,45.58406984,-73.58486705,7.0,8.0,5.0,3.0,7.0,0.0,4.0,9.0,4.0,8,4.0,9.0,5.0,10.0,6.0,7.0,3.0,2011.0,78305,3,5813,11,48,27,9,10,5,30,29,16,15,9,30,49,21,35,65,14,64,8,5,6,2,6,3,83,8,0,22,16,23,14,26,51,49,44.0,22.0,34.0,64.0,8.0,3.0,False,2.0,0.0,1362.0,False,False,2.0,True,True,8.901315786182915,494534.34,25534.343750000175
210,"2250, Rue De Chambly, apt. 1, Montréal (Mercier/Hochelaga-Maisonneuve), Neighbourhood Hochelaga-Maisonneuve",299000,45.546698,-73.548435,8.0,8.0,7.0,8.0,5.0,6.0,6.0,10.0,7.0,10,6.0,10.0,8.0,10.0,6.0,9.0,7.0,2005.0,136024,3,5347,9,52,24,9,11,5,45,32,12,8,4,42,35,23,34,66,43,31,10,5,7,4,5,5,86,4,0,29,17,21,14,20,79,21,85.0,5.0,10.0,84.0,7.0,2.0,False,1.0,0.0,866.0,False,False,0.0,False,True,6.076919727584829,351993.53,52993.53124999994
211,"7390, Chemin de la Côte-Saint-Luc, apt. 6, Montréal (Côte-des-Neiges/Notre-Dame-de-Grâce), Neighbourhood Notre-Dame-de-Grâce",379000,45.461318,-73.657556,6.0,6.0,4.0,5.0,6.0,2.0,0.0,9.0,10.0,7,4.0,9.0,10.0,6.0,5.0,7.0,4.0,2008.0,166011,1,7718,11,54,21,8,9,9,40,29,15,11,6,33,45,22,27,73,51,30,8,5,4,3,3,6,69,22,0,47,16,19,6,12,50,50,33.0,39.0,28.0,55.0,8.0,3.0,False,1.0,0.0,1065.0,False,False,1.0,True,True,6.678262280649494,392319.44,13319.437499999825
212,"1188, Avenue Union, apt. 2207, Montréal (Ville-Marie), Neighbourhood Central West",1388000,45.50283489,-73.56766007,10.0,10.0,10.0,5.0,5.0,6.0,0.0,8.0,8.0,10,10.0,10.0,9.0,10.0,10.0,10.0,2.0,2018.0,87168,6,6414,10,58,18,7,8,9,55,31,9,4,2,57,26,17,27,73,33,28,11,8,13,8,1,2,48,49,0,52,15,18,6,9,63,37,54.0,26.0,20.0,98.0,7.0,2.0,False,2.0,0.0,1254.0,False,True,2.0,True,True,2.3802846976967618,1171479.2,-216520.7499999993
213,"3115, Avenue Ernest-Hemingway, apt. 206, Montréal (Saint-Laurent), Neighbourhood New Saint-Laurent/Bois-Franc",488000,45.507126,-73.717929,5.0,6.0,2.0,7.0,8.0,0.0,8.0,8.0,3.0,10,1.0,6.0,4.0,5.0,4.0,5.0,3.0,2010.0,98828,5,2299,10,42,24,10,13,12,28,27,17,17,11,29,53,18,49,51,27,31,12,9,16,6,11,15,45,30,0,39,16,21,7,17,45,55,37.0,25.0,38.0,28.0,10.0,2.0,False,2.0,0.0,1032.0,False,False,2.0,True,True,9.342265974409274,501927.1,13927.09374999965
214,"7931, Avenue Salomon-Marion, apt. 3, Montréal (Rivière-des-Prairies/Pointe-aux-Trembles), Neighbourhood Rivière-des-Prairies",224900,45.636921,-73.598302,4.0,4.0,2.0,6.0,9.0,0.0,5.0,8.0,1.0,9,1.0,8.0,6.0,5.0,4.0,6.0,8.0,1984.0,106743,0,2515,7,38,25,12,17,8,28,32,17,15,8,34,43,23,64,36,13,28,31,14,11,3,26,24,47,3,0,16,17,25,18,24,76,24,71.0,16.0,13.0,24.0,8.0,2.0,False,1.0,0.0,938.0,False,False,1.0,False,True,14.718213339860576,197275.36,-27624.640625000116
215,"100, Rue André-Prévost, apt. 1804, Montréal (Verdun/Île-des-Soeurs), Neighbourhood Île-des-Soeurs",899000,45.447286,-73.56049,2.0,3.0,1.0,5.0,10.0,0.0,10.0,3.0,0.0,6,0.0,1.0,1.0,3.0,1.0,2.0,6.0,2013.0,69229,5,7181,8,45,22,9,12,11,42,34,13,8,3,46,36,18,37,63,46,21,13,8,9,4,3,7,69,21,0,43,16,18,9,14,75,25,64.0,22.0,14.0,9.0,9.0,3.0,False,2.0,1.0,1386.0,False,True,2.0,True,True,7.011122057626113,817398.3,-81601.68749999953
216,"3802, Rue Des Ormeaux, Montréal (Mercier/Hochelaga-Maisonneuve), Neighbourhood Mercier",335000,45.604608,-73.530999,6.0,7.0,4.0,5.0,7.0,3.0,2.0,10.0,9.0,8,4.0,9.0,8.0,7.0,6.0,9.0,7.0,2014.0,136024,3,5347,9,52,24,9,11,5,45,32,12,8,4,42,35,23,34,66,43,31,10,5,7,4,5,5,86,4,0,29,17,21,14,20,79,21,85.0,5.0,10.0,57.0,7.0,2.0,False,1.0,0.0,1125.0,False,False,0.0,False,True,12.291016996291336,324615.0,-10384.999999999825
217,"1537, boulevard Alexis-Nihon, Montréal (Saint-Laurent), Neighbourhood New Saint-Laurent/Bois-Franc",389000,45.51150541,-73.7034823,6.0,7.0,3.0,8.0,8.0,0.0,8.0,5.0,6.0,9,3.0,7.0,6.0,6.0,5.0,7.0,6.0,1994.0,98828,5,2299,10,42,24,10,13,12,28,27,17,17,11,29,53,18,49,51,27,31,12,9,16,6,11,15,45,30,0,39,16,21,7,17,45,55,37.0,25.0,38.0,38.0,7.0,2.0,False,1.0,0.0,878.0,False,False,1.0,True,True,8.248022234065926,337038.62,-51961.37500000035
218,"4150, Rue Saint-Ambroise, apt. 506, Montréal (Le Sud-Ouest), Neighbourhood Saint-Henri/Petite Bourgogne",1150000,45.47403197,-73.58036663,10.0,10.0,7.0,10.0,6.0,6.0,0.0,8.0,7.0,10,7.0,10.0,6.0,10.0,8.0,9.0,5.0,2006.0,80153,9,5070,8,50,22,9,11,7,46,32,11,7,4,44,32,24,35,65,43,18,11,5,10,13,2,7,71,20,0,38,16,19,9,18,74,26,59.0,26.0,15.0,77.0,6.0,3.0,False,2.0,0.0,1447.0,False,True,2.0,True,True,3.6650461407518113,974899.4,-175100.62500000047
219,"5200, Avenue Gatineau, apt. B602, Montréal (Côte-des-Neiges/Notre-Dame-de-Grâce), Neighbourhood Côte-des-Neiges",339000,45.496261,-73.62024,10.0,10.0,7.0,7.0,5.0,4.0,7.0,10.0,9.0,10,5.0,10.0,10.0,10.0,9.0,10.0,8.0,2017.0,166011,1,7718,11,54,21,8,9,9,40,29,15,11,6,33,45,22,27,73,51,30,8,5,4,3,3,6,69,22,0,47,16,19,6,12,50,50,33.0,39.0,28.0,83.0,4.0,1.0,False,1.0,0.0,469.0,False,False,0.0,False,True,1.956353004128665,378992.0,39991.99999999977
220,"15972, Rue Victoria, Montréal (Rivière-des-Prairies/Pointe-aux-Trembles), Neighbourhood Pointe-aux-Trembles",219000,45.69379304,-73.49136954,4.0,3.0,2.0,7.0,9.0,2.0,9.0,7.0,5.0,8,1.0,8.0,8.0,4.0,5.0,4.0,7.0,1997.0,106743,0,2515,7,38,25,12,17,8,28,32,17,15,8,34,43,23,64,36,13,28,31,14,11,3,26,24,47,3,0,16,17,25,18,24,76,24,71.0,16.0,13.0,22.0,7.0,2.0,False,1.0,0.0,818.0,False,False,1.0,True,True,22.621337196658178,206167.53,-12832.468749999884
221,"4232A, Rue Saint-Urbain, Montréal (Le Plateau-Mont-Royal), Neighbourhood Le Plateau-Mont-Royal",459000,45.51716,-73.58300600000001,10.0,10.0,10.0,10.0,5.0,7.0,5.0,9.0,9.0,10,10.0,10.0,8.0,10.0,10.0,9.0,5.0,2001.0,104000,4,12855,8,52,20,8,11,8,52,30,10,6,2,52,32,16,28,72,57,23,7,5,5,2,1,2,82,16,0,57,14,16,5,8,73,27,67.0,23.0,10.0,96.0,5.0,2.0,False,1.0,0.0,736.0,False,False,0.0,False,True,1.8297498722340964,395269.75,-63730.24999999977
222,"1845, Rue Davidson, apt. 7, Montréal (Mercier/Hochelaga-Maisonneuve), Neighbourhood Hochelaga-Maisonneuve",399000,45.542801000000004,-73.544664,9.0,9.0,8.0,10.0,5.0,7.0,7.0,9.0,5.0,8,9.0,10.0,10.0,10.0,6.0,9.0,7.0,1991.0,136024,3,5347,9,52,24,9,11,5,45,32,12,8,4,42,35,23,34,66,43,31,10,5,7,4,5,5,86,4,0,29,17,21,14,20,79,21,85.0,5.0,10.0,83.0,4.0,2.0,False,1.0,0.0,1275.0,False,False,1.0,False,False,5.951182625963727,425073.25,26073.250000000233
223,"7080, Rue Hutchison, apt. 506, Montréal (Villeray/Saint-Michel/Parc-Extension), Neighbourhood Parc-Extension",415000,45.529371999999995,-73.621799,10.0,10.0,8.0,8.0,5.0,5.0,3.0,8.0,3.0,9,7.0,10.0,8.0,10.0,9.0,10.0,5.0,1948.0,143853,1,8692,11,58,23,8,8,3,40,29,14,11,7,33,42,25,28,72,49,33,6,4,4,3,3,2,91,4,0,29,14,20,11,26,56,44,57.0,10.0,33.0,85.0,5.0,2.0,False,1.0,0.0,827.0,False,False,1.0,True,True,3.3199556827395185,419576.8,4576.812499999884
224,"730, 32e Avenue, apt. 302, Montréal (Lachine), Neighbourhood West",419000,45.44355382,-73.69237912,5.0,5.0,3.0,2.0,10.0,0.0,4.0,7.0,5.0,8,4.0,8.0,6.0,6.0,4.0,5.0,4.0,2004.0,44489,7,2498,9,48,22,10,12,9,40,29,14,11,5,35,41,24,43,57,44,27,9,7,7,6,15,10,70,6,0,27,16,23,13,21,77,23,59.0,30.0,11.0,57.0,6.0,2.0,False,1.0,0.0,955.0,False,False,2.0,True,True,10.002446991618065,343697.94,-75302.06249999977
225,"1210, boulevard De Maisonneuve Ouest, apt. PH-C, Montréal (Ville-Marie), Neighbourhood Golden Square Mile",2795000,45.499990999999994,-73.57601600000001,10.0,10.0,10.0,7.0,6.0,7.0,3.0,7.0,7.0,9,10.0,9.0,10.0,10.0,10.0,10.0,3.0,2004.0,87168,6,6414,10,58,18,7,8,9,55,31,9,4,2,57,26,17,27,73,33,28,11,8,13,8,1,2,48,49,0,52,15,18,6,9,63,37,54.0,26.0,20.0,97.0,7.0,2.0,False,2.0,0.0,2250.0,False,True,2.0,True,True,1.7947272032143555,2396067.0,-398932.9999999986
226,"5250, Rue Resther, apt. 102, Montréal (Le Plateau-Mont-Royal), Neighbourhood Le Plateau-Mont-Royal",399000,45.529662,-73.590836,10.0,10.0,10.0,10.0,2.0,6.0,8.0,10.0,8.0,10,10.0,10.0,6.0,10.0,10.0,9.0,6.0,2005.0,104000,4,12855,8,52,20,8,11,8,52,30,10,6,2,52,32,16,28,72,57,23,7,5,5,2,1,2,82,16,0,57,14,16,5,8,73,27,67.0,23.0,10.0,89.0,4.0,2.0,False,1.0,0.0,859.0,False,False,0.0,False,True,2.8484056087676732,426919.3,27919.312500000233
227,"5150, Rue Buchan, apt. 4801, Montréal (Côte-des-Neiges/Notre-Dame-de-Grâce), Neighbourhood Côte-des-Neiges",340000,45.497177,-73.65205999999999,8.0,9.0,4.0,3.0,8.0,0.0,6.0,7.0,7.0,8,4.0,10.0,6.0,9.0,5.0,9.0,3.0,2014.0,166011,1,7718,11,54,21,8,9,9,40,29,15,11,6,33,45,22,27,73,51,30,8,5,4,3,3,6,69,22,0,47,16,19,6,12,50,50,33.0,39.0,28.0,59.0,5.0,2.0,False,1.0,0.0,687.0,False,True,0.0,False,True,4.2844562496529734,367707.0,27707.000000000116
